uuid,country,source,source_school_id,school_name,latitude,longitude,dq_score,student_count,computer_availability,school_type,school_region,internet_availability,internet_speed_Mbps,region,region_code,state,state_code,city,city_code,internet_availability_prediction
fa22d9cf-1c20-3121-8f8f-f07cc0776b4b,Brazil,government,16000030,ESC EST IVANILDO FORTES DA SILVA,2.6947,-51.3613,1.0,106,Yes,Estadual,Rural,Yes,2.0,Norte,1,Amapá,BR16,Calçoene,BR1600204,Yes
039effd3-515b-3122-b3d4-eebd915424b8,Brazil,government,16000048,ESC EST AMARO BRASILINO DE F FILHO,2.4923,-50.9469,1.0,296,No,Estadual,Urban,No,0.0,Norte,1,Amapá,BR16,Calçoene,BR1600204,No
f87b1030-6db1-3749-a2bd-79aaf0225019,Brazil,government,16000056,ESC EST CALAFATE,2.1592,-50.8988,1.0,13,No,Municipal,Rural,No,0.0,Norte,1,Amapá,BR16,Calçoene,BR1600204,No
890baa00-d1a5-3128-a82b-b54fe97c1373,Brazil,government,16000064,ESC EST PROF SILVIO ELITO DE LIMA SANTOS,2.4975,-50.9572,1.0,654,Yes,Estadual,Urban,Yes,5.0,Norte,1,Amapá,BR16,Calçoene,BR1600204,Yes
754636a1-8250-3387-bcbd-a5f0e696c29c,Brazil,government,16000080,ESC EST JOSE RODRIGUES CORDEIRO,2.4979,-50.9574,1.0,284,Yes,Estadual,Urban,No,0.0,Norte,1,Amapá,BR16,Calçoene,BR1600204,No
42cbfd3a-fe70-35ad-838a-d388397f47d6,Brazil,government,16000099,ESC EST LOBO DALMADA,2.4929,-50.9512,1.0,218,No,Municipal,Urban,No,0.0,Norte,1,Amapá,BR16,Calçoene,BR1600204,No
da888c8a-8d85-3ed2-98c6-5d977ee6fad3,Brazil,government,16000129,ESC MUL SAO SEBASTIAO,2.4234,-51.1369,0.67,5,No,Municipal,Rural,No,0.0,Norte,1,Amapá,BR16,Calçoene,BR1600204,No
50795a12-206a-39c9-afc3-e316d613abac,Brazil,government,16000137,ESC MUL MANOEL ALVES FERREIRA,2.2022,-50.8588,1.0,5,No,Municipal,Rural,No,0.0,Norte,1,Amapá,BR16,Calçoene,BR1600204,No
cf1039e5-60f2-3d89-b95b-dcb2609fcc2e,Brazil,government,16000153,ESC MUL COMECINHO DE VIDA,2.4923,-50.9502,1.0,193,No,Municipal,Urban,Yes,5.0,Norte,1,Amapá,BR16,Calçoene,BR1600204,Yes
4cdcaf17-1603-357a-8978-7807bcfdd618,Brazil,government,16000161,ESC EST VILA DE CUNANI,3.1059,-51.2115,1.0,0,,Estadual,Rural,,,Norte,1,Amapá,BR16,Calçoene,BR1600204,No
4f2281aa-7723-3854-bb8d-536be297adc8,Brazil,government,16000170,ESC EST JUVENAL GUIMARAES TEIXEIRA,2.3112,-51.6324,1.0,290,No,Estadual,Rural,Yes,5.0,Norte,1,Amapá,BR16,Calçoene,BR1600204,No
70ec34d2-1643-318d-8ab0-b8464af97d3f,Brazil,government,16000188,ESC INDIGENA EST JOSE NARCISO,3.7193,-51.6191,0.67,38,No,Estadual,Rural,No,0.0,Norte,1,Amapá,BR16,Oiapoque,BR1600501,No
eab7aaf2-5061-348a-9b53-449a98e86420,Brazil,government,16000196,ESC INDIGENA EST MARIA CATARINA NUNES,3.7193,-51.6191,0.67,33,No,Estadual,Rural,No,0.0,Norte,1,Amapá,BR16,Oiapoque,BR1600501,No
c71da25e-a0ed-383e-a4c2-be128cb28c71,Brazil,government,16000200,ESC INDIGENA EST MOISES IAPARRA5022019,3.4911,-51.4836,0.67,561,Yes,Estadual,Rural,No,0.0,Norte,1,Amapá,BR16,Oiapoque,BR1600501,No
d375f05e-2bb7-3378-af01-82966d376ef1,Brazil,government,16000226,ESC MUL TAPARABU,3.8466,-51.8349,1.0,23,No,Municipal,Rural,No,0.0,Norte,1,Amapá,BR16,Oiapoque,BR1600501,No
7d18bee2-7c82-398e-a843-b17ed1f0f90a,Brazil,government,16000242,ESC INDIGENA EST SAO SEBASTIAO DO ACAIZAL,3.7193,-51.6191,0.67,45,No,Estadual,Rural,No,0.0,Norte,1,Amapá,BR16,Oiapoque,BR1600501,No
e475d35d-2f7a-3e95-8c37-7126fafe4b45,Brazil,government,16000250,ESC INDIGENA EST FELINTO MORAES,3.7193,-51.6191,0.67,11,No,Estadual,Rural,No,0.0,Norte,1,Amapá,BR16,Oiapoque,BR1600501,No
69c68066-8445-3b88-beb7-f040b15d8ce6,Brazil,government,16000269,ESC INDIGENA EST JOAO TEODORO FORTE,3.7193,-51.6191,0.67,288,No,Estadual,Rural,No,0.0,Norte,1,Amapá,BR16,Oiapoque,BR1600501,No
93122911-069b-3f48-85fd-f912167cf085,Brazil,government,16000277,ESC INDIGENA EST GABRIEL DOS ANJOS,3.7193,-51.6191,0.67,73,No,Estadual,Rural,No,0.0,Norte,1,Amapá,BR16,Oiapoque,BR1600501,No
8bba4c3f-14b7-3d2b-986a-50116853d85c,Brazil,government,16000285,ESC INDIGENA EST SAO JOSE,3.7193,-51.6191,0.67,20,No,Estadual,Rural,No,0.0,Norte,1,Amapá,BR16,Oiapoque,BR1600501,No
40c6c256-7dd1-3eb2-ace8-b8cf448269fa,Brazil,government,16000293,ESC INDIGENA EST JOAO BATISTA MACIAL,3.7193,-51.6191,0.67,33,No,Estadual,Rural,Yes,2.0,Norte,1,Amapá,BR16,Oiapoque,BR1600501,No
bcd9ced2-a623-378f-b816-9f79c69bdf7a,Brazil,government,16000307,ESC EST JOAQUIM CAETANO DA SILVA,3.8476,-51.8355,1.0,956,No,Estadual,Urban,Yes,2.0,Norte,1,Amapá,BR16,Oiapoque,BR1600501,Yes
ececd66c-e6a4-32e3-be59-bda6a02728b4,Brazil,government,16000315,ESC EST JOAQUIM NABUCO,3.8438,-51.8344,1.0,733,Yes,Estadual,Urban,Yes,2.0,Norte,1,Amapá,BR16,Oiapoque,BR1600501,Yes
8214f02c-e6ca-38ba-b3be-da842d8a5edd,Brazil,government,16000323,ESC INDIGENA EST JORGE IAPARRA,3.7193,-51.6191,0.67,604,Yes,Estadual,Rural,Yes,2.0,Norte,1,Amapá,BR16,Oiapoque,BR1600501,Yes
3621af1b-2f90-3240-8a87-390cb5f27ea6,Brazil,government,16000331,ESC INDIGENA EST CAMILO NARCISO,3.7193,-51.6191,0.67,564,Yes,Estadual,Rural,Yes,2.0,Norte,1,Amapá,BR16,Oiapoque,BR1600501,Yes
c1fe4564-1cb3-3f7d-8fbe-ce14570ab603,Brazil,government,16000340,ESC INDIGENA EST LEIDE DOS SANTOS,3.7193,-51.6191,0.67,21,No,Estadual,Rural,No,0.0,Norte,1,Amapá,BR16,Oiapoque,BR1600501,No
8c97b84a-ac97-3921-b543-93f0c17a267d,Brazil,government,16000366,ESC INDIGENA EST SAO RAIMUNDO,3.7193,-51.6191,0.67,4,No,Estadual,Rural,No,0.0,Norte,1,Amapá,BR16,Oiapoque,BR1600501,No
9e487570-bcd0-3861-964f-9728f44b2355,Brazil,government,16000382,ESC INDIGENA EST YANAWA,3.7193,-51.6191,0.67,18,No,Estadual,Rural,No,0.0,Norte,1,Amapá,BR16,Oiapoque,BR1600501,No
0685c914-f579-303e-acba-044ac9316794,Brazil,government,16000390,ESC INDIGENA EST ENCRUZO,3.7193,-51.6191,1.0,0,,Estadual,Rural,,,Norte,1,Amapá,BR16,Oiapoque,BR1600501,No
a9fb5b97-b23d-39ea-aaa7-004aaa64c2eb,Brazil,government,16000480,ESC MUL PROF MARCIA DO SOCORRO LIMA DE FRANCA,3.8442,-51.8324,1.0,493,No,Municipal,Urban,Yes,2.0,Norte,1,Amapá,BR16,Oiapoque,BR1600501,Yes
691cca90-04b9-37dd-9921-c3ab45d52663,Brazil,government,16000587,ESC EST DUQUE DE CAXIAS,3.8168,-51.8634,1.0,229,No,Estadual,Rural,No,0.0,Norte,1,Amapá,BR16,Oiapoque,BR1600501,No
6a59bbf0-62dd-3b29-bb23-af56e15e2829,Brazil,government,16000609,ESC MUL PRAINHA DO CASSIPORE,3.0446,-51.3674,1.0,11,No,Municipal,Rural,No,0.0,Norte,1,Amapá,BR16,Oiapoque,BR1600501,No
ce344686-282a-391a-b27c-f92c0c98da45,Brazil,government,16000617,ESC EST VILA VELHA,3.2114,-51.2283,1.0,42,No,Estadual,Rural,No,0.0,Norte,1,Amapá,BR16,Oiapoque,BR1600501,No
5cf8d80a-5555-3ebe-8e80-57d574afc930,Brazil,government,16000625,ESC INDIGENA EST MANOEL PRIMO DOS SANTOS,3.7193,-51.6191,0.67,220,No,Estadual,Rural,No,0.0,Norte,1,Amapá,BR16,Oiapoque,BR1600501,No
e563d6d5-14b8-3058-83e4-d2864dc5c40d,Brazil,government,16000641,ESC EST VEIGA CABRAL,2.0497,-50.7918,1.0,391,Yes,Estadual,Urban,Yes,5.0,Norte,1,Amapá,BR16,Amapá,BR1600105,Yes
bc663377-186d-3734-9d0f-d001d7dea865,Brazil,government,16000650,ESC MUL SANTO ANTONIO,1.9217,-50.7052,1.0,2,No,Municipal,Rural,No,0.0,Norte,1,Amapá,BR16,Amapá,BR1600105,No
153f72ca-b3ff-35c2-8fc7-c07e1792f13c,Brazil,government,16000676,ESC EST BOM JESUS DO ARAGUARI,1.9835,-50.9128,0.67,17,Yes,Estadual,Rural,No,0.0,Norte,1,Amapá,BR16,Amapá,BR1600105,No
7fed93a3-9646-3097-8d48-c06bced62a15,Brazil,government,16000684,ESC EST ROZENDO NASCIMENTO FILHO,1.8703,-50.9263,1.0,104,No,Estadual,Rural,No,0.0,Norte,1,Amapá,BR16,Amapá,BR1600105,No
2268ed6a-a5a1-3575-b55d-8236ae8f076d,Brazil,government,16000692,ESC EST CRUZEIRO,1.9937,-50.9681,1.0,52,No,Municipal,Rural,No,0.0,Norte,1,Amapá,BR16,Amapá,BR1600105,No
3890ed94-f46f-31fe-aa3f-8a2d5a6cd73a,Brazil,government,16000706,ESC EST PROF MARIA ESMERALDA MARTINS DE MOURA,2.0454,-50.7929,1.0,211,No,Estadual,Urban,No,0.0,Norte,1,Amapá,BR16,Amapá,BR1600105,Yes
54fe9d4d-54a1-35b1-ac53-f291bd3d6acc,Brazil,government,16000722,ESC EST SAO RAIMUNDO DO ARAGUARI,1.9835,-50.9128,0.67,8,No,Estadual,Rural,No,0.0,Norte,1,Amapá,BR16,Amapá,BR1600105,No
09f1feba-5394-316b-a2d1-41339677f17d,Brazil,government,16000749,ESC EST VIDAL DE NEGREIROS,2.0471,-50.7919,1.0,514,Yes,Estadual,Urban,Yes,2.0,Norte,1,Amapá,BR16,Amapá,BR1600105,Yes
ae5e9720-0519-3adb-aaec-3a356ec202ba,Brazil,government,16000757,ESC EST VULCAO DO NORTE,1.9422,-50.7275,1.0,7,No,Municipal,Rural,No,0.0,Norte,1,Amapá,BR16,Amapá,BR1600105,No
e3de5024-b957-3165-a70c-c7ff2eadf376,Brazil,government,16000765,ESC MUL ANTIDIO PROSPERO,1.9835,-50.9128,1.0,0,,Municipal,Rural,,,Norte,1,Amapá,BR16,Amapá,BR1600105,No
80538edb-717f-3b74-889e-703ec118ea78,Brazil,government,16000773,ESC MUL FRANCISCO A DE OLIVEIRA,2.05,-50.7873,0.89,292,No,Municipal,Urban,Yes,2.0,Norte,1,Amapá,BR16,Amapá,BR1600105,Yes
976d446f-b96b-30f3-a061-41c464fa8db7,Brazil,government,16000781,ESC MUL PROF MARIA ELIZIA B COSTA,2.0362,-50.7932,1.0,170,No,Municipal,Urban,No,0.0,Norte,1,Amapá,BR16,Amapá,BR1600105,No
385d914d-f6e0-329d-b241-4e55d5df59a5,Brazil,government,16000790,ESC MUL VISTA ALEGRE,1.8928,-50.7298,1.0,3,No,Municipal,Rural,No,0.0,Norte,1,Amapá,BR16,Amapá,BR1600105,No
e015e74d-5266-350f-bf26-9e11e476ed9a,Brazil,government,16000803,ESC MUL LOURENCO BORGES FACANHA,2.0533,-50.7914,1.0,178,No,Municipal,Urban,Yes,5.0,Norte,1,Amapá,BR16,Amapá,BR1600105,No
fb0c8e30-474e-3165-94e5-c8d537c8522f,Brazil,government,16000811,ESC MUL MARIA DO CEU GONCALVES DIAS,2.0371,-50.7927,1.0,393,Yes,Municipal,Urban,Yes,5.0,Norte,1,Amapá,BR16,Amapá,BR1600105,Yes
61533ac8-c0e4-3b3b-9e9e-57a8277451f7,Brazil,government,16000820,ESC EST ANTONIO TEIXEIRA GUERRA,1.5329,-50.2316,0.67,88,No,Estadual,Rural,No,0.0,Norte,1,Amapá,BR16,Amapá,BR1600105,No
d3307e73-e7d3-3ddd-9b81-0b4d1c9d812f,Brazil,government,16000838,ESC MUL PARATU,1.5329,-50.2316,1.0,0,,Municipal,Rural,,,Norte,1,Amapá,BR16,Amapá,BR1600105,No
f86795f8-ec89-3fd6-9436-2f2f8932c87b,Brazil,government,16000846,ESC EST JOAO EVANGELISTA LOPES,1.7288,-50.9301,1.0,49,No,Estadual,Rural,No,0.0,Norte,1,Amapá,BR16,Pracuúba,BR1600550,No
698fae63-5c44-3aab-99b1-b94c029fe39f,Brazil,government,16000854,ESC EST PEDRO MACIEL FILHO,1.6643,-50.9198,1.0,96,No,Estadual,Rural,No,0.0,Norte,1,Amapá,BR16,Pracuúba,BR1600550,No
fb1b7360-3ace-3a8f-9701-fb9dc89bb444,Brazil,government,16000862,ESC EST ERNESTO PEREIRA COLARES,1.7433,-50.7874,1.0,331,No,Estadual,Urban,Yes,5.0,Norte,1,Amapá,BR16,Pracuúba,BR1600550,Yes
cdbd534e-3476-3de9-b5fb-2828183b757e,Brazil,government,16000870,ESC EST PEDRO TEIXEIRA,1.7286,-50.8779,1.0,159,No,Estadual,Rural,Yes,5.0,Norte,1,Amapá,BR16,Pracuúba,BR1600550,No
7834dce5-7271-388e-8dfa-627884d2be30,Brazil,government,16000889,ESC EST JOSE PLACIDO DE CASTRO,1.8141,-50.8767,1.0,40,No,Estadual,Rural,Yes,2.0,Norte,1,Amapá,BR16,Pracuúba,BR1600550,Yes
f7c82483-cd63-39ad-b337-e97b32234028,Brazil,government,16000897,ESC EST SAO MIGUEL DO FLEXAL,1.6255,-51.2769,0.67,25,No,Estadual,Rural,No,0.0,Norte,1,Amapá,BR16,Pracuúba,BR1600550,No
666eff51-959f-3670-a289-137edf98280d,Brazil,government,16000900,ESC EST BONITO DO APOREMA,1.2944,-50.9854,1.0,0,,Estadual,Rural,,,Norte,1,Amapá,BR16,Tartarugalzinho,BR1600709,No
b617753f-8bfa-3f50-a140-141d64a43692,Brazil,government,16000927,ESC EST BASILIO PEREIRA DE SOUZA FILHO,1.093,-50.7665,0.94,40,No,Estadual,Rural,No,0.0,Norte,1,Amapá,BR16,Tartarugalzinho,BR1600709,No
e5973d8a-b028-3509-9ab1-645b9ec80ee0,Brazil,government,16000935,ESC EST MARIA DE NAZARE DE P LIMA,1.2944,-50.9854,0.67,25,No,Estadual,Rural,No,0.0,Norte,1,Amapá,BR16,Tartarugalzinho,BR1600709,No
b1e41aff-3de9-3ed0-97e9-c50f42952af8,Brazil,government,16000951,ESC EST CONCEICAO DO APOREMA,1.2944,-50.9854,1.0,0,,Estadual,Rural,,,Norte,1,Amapá,BR16,Tartarugalzinho,BR1600709,No
38c51eca-ed37-3598-90c2-16e5f6a01e9c,Brazil,government,16000960,ESC EST JOAO BRAZAO DA SILVA,1.2257,-50.8962,1.0,67,No,Estadual,Rural,No,0.0,Norte,1,Amapá,BR16,Tartarugalzinho,BR1600709,No
4ed60862-af5d-3564-9fd6-30c7f6b08b4e,Brazil,government,16000978,ESC EST GUANABARA DO ARAGUARI,1.2944,-50.9854,0.67,39,No,Estadual,Rural,No,0.0,Norte,1,Amapá,BR16,Tartarugalzinho,BR1600709,No
01ed7ce2-61d5-3308-88ec-b07695fd5c76,Brazil,government,16000986,ESC EST WASHINGTON LUIS A FIGUEIREDO,1.5815,-50.9029,1.0,92,No,Estadual,Rural,Yes,2.0,Norte,1,Amapá,BR16,Tartarugalzinho,BR1600709,Yes
c7d10494-eb04-3f32-993a-2091e9285b33,Brazil,government,16000994,ESC EST MARIA LUCILA BRAZAO,1.3789,-50.6823,1.0,75,No,Estadual,Rural,No,0.0,Norte,1,Amapá,BR16,Tartarugalzinho,BR1600709,No
c2951164-af75-3011-8e32-645d0479be58,Brazil,government,16001001,ESC EST NAZARE DO APOREMA,1.2308,-50.8467,1.0,16,No,Estadual,Rural,No,0.0,Norte,1,Amapá,BR16,Tartarugalzinho,BR1600709,No
a97bcf37-d9c6-3c2c-80fc-f51f6bcc7a91,Brazil,government,16001028,ESC EST NOVA CANAA,1.2944,-50.9854,1.0,0,,Estadual,Rural,,,Norte,1,Amapá,BR16,Tartarugalzinho,BR1600709,No
4af82fc7-1387-345c-9c6a-ed64d229fb00,Brazil,government,16001052,ESC EST SANTA FE DO FLORESTAL,1.0856,-50.8929,1.0,26,No,Estadual,Rural,Yes,2.0,Norte,1,Amapá,BR16,Tartarugalzinho,BR1600709,No
82202cdc-d082-3128-ac11-97e7fbd0b63c,Brazil,government,16001060,ESC EST LUCIANA RABELO LEITE,1.1154,-50.4723,1.0,112,No,Estadual,Rural,No,0.0,Norte,1,Amapá,BR16,Tartarugalzinho,BR1600709,No
227bffc1-a055-3ef9-9661-019203e2256b,Brazil,government,16001079,ESC EST SAO JORGE DO APOREMA,1.2944,-50.9854,1.0,0,,Estadual,Rural,,,Norte,1,Amapá,BR16,Tartarugalzinho,BR1600709,No
aab19e5e-30c9-377d-ae8e-7e3964bd03f7,Brazil,government,16001087,ESC EST SAO SEBASTIAO DA TERRA FIRME,1.2123,-50.6669,1.0,75,No,Estadual,Rural,No,0.0,Norte,1,Amapá,BR16,Tartarugalzinho,BR1600709,No
dc915a1c-f1b8-38ac-9768-244407062cb2,Brazil,government,16001095,ESC EST SAO TOME DO APOREMA,1.1107,-50.8334,1.0,129,No,Estadual,Rural,No,0.0,Norte,1,Amapá,BR16,Tartarugalzinho,BR1600709,No
a24d9586-fae9-3604-9bb5-a0e783024502,Brazil,government,16001109,ESC EST PROF JOAO CAMARAO,1.3974,-50.9244,1.0,23,No,Estadual,Rural,No,0.0,Norte,1,Amapá,BR16,Tartarugalzinho,BR1600709,No
a8cd87d9-b443-3564-b7c5-01041e63441d,Brazil,government,16001125,ESC EST UAPEZAL,1.2654,-50.6594,1.0,282,Yes,Estadual,Rural,No,0.0,Norte,1,Amapá,BR16,Tartarugalzinho,BR1600709,No
ad853066-9b10-3c02-b907-1cdedd6ac451,Brazil,government,16001133,ESC EST JUVENAL FARIAS DA COSTA,1.3841,-50.9915,1.0,79,No,Estadual,Rural,No,0.0,Norte,1,Amapá,BR16,Tartarugalzinho,BR1600709,No
85f937c2-1eda-31f0-b33f-68e1f2691d84,Brazil,government,16001150,ESC EST NAZARE TAVORA GURJAO,1.2944,-50.9854,0.67,8,No,Estadual,Rural,No,0.0,Norte,1,Amapá,BR16,Tartarugalzinho,BR1600709,No
94f92068-c061-3772-ac60-aa728f1ae4bb,Brazil,government,16001176,ESC EST RAIMUNDO DOS SANTOS MACIEL,1.1531,-50.8313,1.0,44,No,Estadual,Rural,No,0.0,Norte,1,Amapá,BR16,Tartarugalzinho,BR1600709,No
9252c180-1038-34b3-b7e8-85cccd547f3c,Brazil,government,16001184,ESC EST PROF MARIA JOSE DE NAZARE F LIMA,1.5063,-50.9127,1.0,369,Yes,Estadual,Urban,Yes,2.0,Norte,1,Amapá,BR16,Tartarugalzinho,BR1600709,Yes
063567a3-fc6b-3c6c-97e7-f4dd46decaff,Brazil,government,16001192,ESC EST DR HERMELINO HERBSTER GUSMAO,0.9035,-52.002,0.94,361,Yes,Estadual,Urban,Yes,5.0,Norte,1,Amapá,BR16,Serra do Navio,BR1600055,Yes
521bf584-a4c2-3a72-b0d0-b31ab5d5b6c2,Brazil,government,16001206,ESC EST COLONIA DE AGUA BRANCA,0.9391,-51.9969,0.67,236,No,Estadual,Rural,Yes,5.0,Norte,1,Amapá,BR16,Serra do Navio,BR1600055,Yes
2eabe93a-23c8-3e27-a07e-7a51567c9fbb,Brazil,government,16001214,ESC MUL PEDRA PRETA,0.905,-52.0125,0.94,47,No,Municipal,Rural,Yes,2.0,Norte,1,Amapá,BR16,Serra do Navio,BR1600055,Yes
7fb9eb9e-aa9e-396d-ac9c-e2723ab2d1b0,Brazil,government,16001222,ESC EST SETE DE SETEMBRO,0.8832,-52.018,0.94,159,Yes,Estadual,Rural,Yes,2.0,Norte,1,Amapá,BR16,Serra do Navio,BR1600055,Yes
a4ecb014-5ca6-359f-a161-f3b506f1763c,Brazil,government,16001230,ESC MUL SAO SEBASTIAO DO CACHACO,0.9446,-52.188,0.94,23,Yes,Municipal,Rural,No,0.0,Norte,1,Amapá,BR16,Pedra Branca do Amapari,BR1600154,No
1dfa5835-0557-320c-8e64-fb05ea41ba06,Brazil,government,16001249,ESC EST CENTRO NOVO,0.8852,-52.0682,1.0,17,No,Estadual,Rural,No,0.0,Norte,1,Amapá,BR16,Pedra Branca do Amapari,BR1600154,No
4f57ff48-8bef-3835-9f04-cf49e9599d73,Brazil,government,16001257,ESC EST SAO JOSE DO CACHORRINHO,0.7812,-51.9502,1.0,12,No,Estadual,Rural,No,0.0,Norte,1,Amapá,BR16,Pedra Branca do Amapari,BR1600154,No
7d7e7b3d-6e51-3c54-a3f1-3196c2fbc5c3,Brazil,government,16001265,ESC EST SETE ILHAS,1.158,-52.5238,0.61,146,No,Estadual,Rural,Yes,5.0,Norte,1,Amapá,BR16,Pedra Branca do Amapari,BR1600154,Yes
4e3a7473-d40e-3a16-b35f-c0a7f3b098cc,Brazil,government,16001273,ESC EST JOSE FERNANDES DA SILVA,0.8069,-51.9777,1.0,340,No,Estadual,Rural,No,0.0,Norte,1,Amapá,BR16,Pedra Branca do Amapari,BR1600154,No
e6a2ba7f-ca0a-39cc-9615-cac9ab1bbc60,Brazil,government,16001281,ESC INDIGENA EST ARAMIRA,1.158,-52.5238,0.61,361,No,Estadual,Rural,No,0.0,Norte,1,Amapá,BR16,Pedra Branca do Amapari,BR1600154,No
36518b65-c143-36f0-a89a-b46ba5b2c4fb,Brazil,government,16001290,ESC EST JOAO PEREIRA CARDOSO,0.8497,-51.9913,1.0,21,No,Estadual,Rural,No,0.0,Norte,1,Amapá,BR16,Pedra Branca do Amapari,BR1600154,No
b2a70f46-e8c1-3f33-bde0-761eacef9076,Brazil,government,16001303,ESC INDIGENA EST MARYRY,1.158,-52.5238,0.61,92,No,Estadual,Rural,No,0.0,Norte,1,Amapá,BR16,Pedra Branca do Amapari,BR1600154,No
2c6d762f-a4aa-35fc-8e2c-fd62cb4eff71,Brazil,government,16001320,ESC EST PROF MARIA HELENA CORDEIRO,0.7802,-51.9513,1.0,1145,Yes,Estadual,Urban,Yes,2.0,Norte,1,Amapá,BR16,Pedra Branca do Amapari,BR1600154,Yes
7492020f-f7d0-34c1-a760-d61dc51bdc0f,Brazil,government,16001338,ESC MUL RIOZINHO,1.0129,-52.2428,1.0,37,No,Municipal,Rural,No,0.0,Norte,1,Amapá,BR16,Pedra Branca do Amapari,BR1600154,No
38ac065e-15c1-333c-9f65-94ba06800eaa,Brazil,government,16001346,ESCOLA INDIGENA ESTADUAL TAITETUWA,1.158,-52.5238,0.61,86,No,Estadual,Rural,No,0.0,Norte,1,Amapá,BR16,Pedra Branca do Amapari,BR1600154,No
f6eeaac5-1abd-385c-acc3-7ab8a35067dd,Brazil,government,16001354,ESC EST TUCANO I,1.158,-52.5238,0.61,14,No,Estadual,Rural,No,0.0,Norte,1,Amapá,BR16,Pedra Branca do Amapari,BR1600154,No
b08e77cb-a8a4-38ea-b513-b7800fb6b3b4,Brazil,government,16001370,ESC INDIGENA EST YTUWASU,1.158,-52.5238,0.61,43,No,Estadual,Rural,No,0.0,Norte,1,Amapá,BR16,Pedra Branca do Amapari,BR1600154,No
ea11a000-5e90-3972-9c37-7fd5f256461c,Brazil,government,16001389,ESC MUL TUCANO II,1.0964,-52.4568,1.0,56,Yes,Municipal,Rural,No,0.0,Norte,1,Amapá,BR16,Pedra Branca do Amapari,BR1600154,No
62c4c9b1-bec7-3ea5-ae4f-de856b126bc9,Brazil,government,16001400,ESC EST PROF JOSE RIBEIRO PONTES,0.8973,-50.7825,1.0,160,No,Estadual,Rural,Yes,5.0,Norte,1,Amapá,BR16,Cutias,BR1600212,Yes
abbec96f-b8d4-3747-acd6-9396122551af,Brazil,government,16001419,ESC EST ALEGRIA DO ARAGUARI,1.0305,-50.4841,1.0,0,,Estadual,Rural,,,Norte,1,Amapá,BR16,Cutias,BR1600212,No
b1a93bc3-3f48-332d-a334-7e86104f2442,Brazil,government,16001427,ESC EST BOM AMIGO DO ARAGUARI,1.0305,-50.4841,1.0,0,,Estadual,Rural,,,Norte,1,Amapá,BR16,Cutias,BR1600212,No
b8a41f48-7444-3730-8f27-2e97490551e7,Brazil,government,16001435,ESC MUL BRAULINO TRINDADE,1.0305,-50.4841,0.67,44,No,Municipal,Rural,No,0.0,Norte,1,Amapá,BR16,Cutias,BR1600212,No
6b64a8de-011f-3604-9164-1900c7373387,Brazil,government,16001443,ESC EST CREIO EM DEUS DO ARAGUARI,1.0305,-50.4841,0.67,65,No,Estadual,Rural,No,0.0,Norte,1,Amapá,BR16,Cutias,BR1600212,No
e5cd96c9-de99-3fcc-aa01-41e9056001e2,Brazil,government,16001451,ESC EST LOURIMAR SIMOES PAES,0.9696,-50.7978,1.0,449,Yes,Estadual,Urban,Yes,5.0,Norte,1,Amapá,BR16,Cutias,BR1600212,Yes
628ec594-ee38-3a7a-91f6-1940520ac208,Brazil,government,16001478,ESC EST MARIO ALVES MEIRA,0.8842,-50.7002,1.0,84,No,Estadual,Rural,Yes,2.0,Norte,1,Amapá,BR16,Cutias,BR1600212,Yes
594a3514-1726-3b7d-9822-56b1d0fa9299,Brazil,government,16001486,ESC EST ORLANDO MENDES DIAS,1.2201,-50.2758,1.0,24,No,Estadual,Rural,No,0.0,Norte,1,Amapá,BR16,Cutias,BR1600212,No
09fb0218-8862-3170-91cd-10e22d0032d8,Brazil,government,16001494,ESC EST PRACUUBA DO ARAGUARI,1.0483,-50.5105,1.0,46,No,Estadual,Rural,No,0.0,Norte,1,Amapá,BR16,Cutias,BR1600212,No
f389305d-3853-33c9-a766-1c4f0059ff45,Brazil,government,16001516,ESC EST SAGRADO CORACAO DE MARIA,0.9081,-50.8196,1.0,11,No,Estadual,Rural,No,0.0,Norte,1,Amapá,BR16,Cutias,BR1600212,No
596c779f-c01f-39dc-9d59-6fa7b269b218,Brazil,government,16001532,ESC EST SAO SEBASTIAO DO PACUI,0.8745,-50.7235,1.0,25,No,Estadual,Rural,Yes,5.0,Norte,1,Amapá,BR16,Cutias,BR1600212,Yes
f136cbd9-0637-3dad-b0cd-74c1d9976842,Brazil,government,16001540,CRECHE MUL SARAH SALOMAO,0.8493,-51.1735,1.0,258,No,Municipal,Urban,No,0.0,Norte,1,Amapá,BR16,Ferreira Gomes,BR1600238,No
a7141a74-7091-3c85-b92f-a195ebab59f2,Brazil,government,16001567,ESC EST PROF MARIA IRACI TAVARES,0.8582,-51.1837,1.0,660,Yes,Estadual,Urban,Yes,5.0,Norte,1,Amapá,BR16,Ferreira Gomes,BR1600238,Yes
4803a134-cbdb-3e68-88c3-c82958e25689,Brazil,government,16001575,ESC EST PEDRO ROLDAO FIGUEIREDO,0.893,-51.0364,0.94,34,No,Estadual,Rural,No,0.0,Norte,1,Amapá,BR16,Ferreira Gomes,BR1600238,No
055c0b21-d34b-33e6-afbd-9d84c3f6acec,Brazil,government,16001583,ESCOLA ESTADUAL MARIA ENEDINA MARQUES COSTA,0.851,-51.1761,0.94,42,No,Estadual,Rural,Yes,5.0,Norte,1,Amapá,BR16,Ferreira Gomes,BR1600238,Yes
d666d2b3-ea97-3968-825a-f8e2bb21fe29,Brazil,government,16001591,ESC EST TRACAJATUBA DO ARAGUARI,0.9444,-51.0138,1.0,12,No,Estadual,Rural,No,0.0,Norte,1,Amapá,BR16,Ferreira Gomes,BR1600238,No
f9de7a60-369f-3f94-a736-d98528dc18cf,Brazil,government,16001605,ESC EST INDEPENDENCIA,0.8908,-51.2555,1.0,167,Yes,Estadual,Rural,No,0.0,Norte,1,Amapá,BR16,Ferreira Gomes,BR1600238,No
43d70bd6-82ee-3b8d-9a8b-e248066a2b08,Brazil,government,16001630,ESC MUL N S DO ROSARIO,0.7996,-51.2911,1.0,49,No,Municipal,Rural,No,0.0,Norte,1,Amapá,BR16,Ferreira Gomes,BR1600238,No
7c6bf46d-3dc5-38a2-a2d8-11ef90739dfa,Brazil,government,16001672,ESC EST COBRA,0.5591,-50.5117,1.0,12,No,Estadual,Rural,No,0.0,Norte,1,Amapá,BR16,Itaubal,BR1600253,No
3df024a1-3e08-3cde-a211-5aefd1c39735,Brazil,government,16001680,ESC EST ANA CLAUDINA PICANCO,0.5059,-50.7487,1.0,87,No,Estadual,Rural,Yes,2.0,Norte,1,Amapá,BR16,Itaubal,BR1600253,Yes
6282df76-2c37-3a07-a22c-80e2ecd989e0,Brazil,government,16001702,ESC EST ESTEVAM DE CARVALHO COSTA,0.5789,-50.8,0.83,130,No,Estadual,Rural,No,0.0,Norte,1,Amapá,BR16,Itaubal,BR1600253,No
99c3497d-a2c1-3aae-b41c-ad54443fb29b,Brazil,government,16001710,ESC EST EUGENIO MACHADO,0.5323,-50.6516,0.67,104,No,Estadual,Rural,No,0.0,Norte,1,Amapá,BR16,Itaubal,BR1600253,No
9a0747b8-6c05-3820-8113-3fcde1cc3ed7,Brazil,government,16001729,ESC MUL IGARAPE FUNDO,0.5323,-50.6516,0.67,13,No,Municipal,Rural,No,0.0,Norte,1,Amapá,BR16,Itaubal,BR1600253,No
35be4a37-ecf4-3dc5-8489-64fd26673baa,Brazil,government,16001737,ESC MUL JOAO ALVES,0.4718,-50.5586,1.0,0,,Municipal,Rural,,,Norte,1,Amapá,BR16,Itaubal,BR1600253,No
26d70e8d-5015-3d85-81af-5956ac8dbb80,Brazil,government,16001745,ESC MUL IPIXUNA GRANDE,0.3838,-50.6228,1.0,114,No,Municipal,Rural,No,0.0,Norte,1,Amapá,BR16,Itaubal,BR1600253,No
270d3db1-816f-32ae-817e-0de210128621,Brazil,government,16001753,ESC EST WILSON HILL DE ARAUJO,0.602,-50.6995,0.94,460,Yes,Estadual,Urban,Yes,5.0,Norte,1,Amapá,BR16,Itaubal,BR1600253,Yes
b018432a-832e-3aa3-acb0-47a04e513b63,Brazil,government,16001761,ESC EST JERUSALEM DO PAU MULATO,0.4411,-50.5883,1.0,179,No,Estadual,Rural,No,0.0,Norte,1,Amapá,BR16,Itaubal,BR1600253,No
b611d9e4-dfb5-3566-b5b0-bbd79f9c186a,Brazil,government,16001770,ESC MUL DOMINGOS GARCIA PINHEIRO,0.5408,-50.7594,1.0,5,No,Municipal,Rural,No,0.0,Norte,1,Amapá,BR16,Itaubal,BR1600253,No
2c2b5899-9b7e-3768-a703-5e144e7b8029,Brazil,government,16001796,ESC EST SAO TOME DO MACACOARI,0.3715,-50.6778,1.0,49,No,Estadual,Rural,No,0.0,Norte,1,Amapá,BR16,Itaubal,BR1600253,No
03696897-f2e1-3a9d-9dfb-f6f4b23d1ace,Brazil,government,16001800,ESC EST ADELANO NUNES LACERDA,0.6166,-50.4933,1.0,119,No,Estadual,Rural,No,0.0,Norte,1,Amapá,BR16,Itaubal,BR1600253,No
775a2790-41a9-35e8-99d2-5f36efd2d0e4,Brazil,government,16001818,ESC MUL ANTONIO MAXIMINO DA CRUZ,0.5323,-50.6516,0.67,28,No,Municipal,Rural,No,0.0,Norte,1,Amapá,BR16,Itaubal,BR1600253,No
dad7223d-8fed-3568-a01f-d3626c8544d5,Brazil,government,16001826,ESC MUL RIO JORDAO,0.5117,-50.7516,1.0,56,No,Municipal,Rural,Yes,2.0,Norte,1,Amapá,BR16,Itaubal,BR1600253,Yes
189df35d-f311-39c0-b01c-8f051a48a5c9,Brazil,government,16001834,PRE ESC ALEGRIA DA CRIANCA,0.5784,-50.7984,1.0,43,No,Municipal,Rural,No,0.0,Norte,1,Amapá,BR16,Itaubal,BR1600253,No
4a7206b1-2175-30a7-9e4e-ff5e84e23db9,Brazil,government,16001877,ESC EST PROF ROBERTO JOSE MORAIS DE CASTRO,0.0182,-51.0611,1.0,395,Yes,Estadual,Urban,Yes,5.0,Norte,1,Amapá,BR16,Macapá,BR1600303,Yes
69e47659-652d-3281-906f-7a6d9dc995f3,Brazil,government,16001885,CENTRO DE ESTUDOS SUPLETIVOS PROF PAULO MELO,0.0411,-51.0502,1.0,600,Yes,Estadual,Urban,Yes,5.0,Norte,1,Amapá,BR16,Macapá,BR1600303,Yes
99bbbf29-4d49-3bc5-8d12-85c21ed54553,Brazil,government,16001907,ESC MUL PROF GUITA,0.0321,-51.0629,1.0,366,Yes,Municipal,Urban,Yes,5.0,Norte,1,Amapá,BR16,Macapá,BR1600303,Yes
24d26cac-3d0d-3f40-b297-4b5a3b26cf52,Brazil,government,16001923,COLEGIO AMAPAENSE,0.0394,-51.0554,1.0,305,Yes,Estadual,Urban,Yes,5.0,Norte,1,Amapá,BR16,Macapá,BR1600303,Yes
2e9e2cef-c97c-39e0-bcf3-69637fa2f7f4,Brazil,government,16002067,ESC EST PROF GABRIEL ALMEIDA CAFE,0.0408,-51.0612,1.0,1978,Yes,Estadual,Urban,Yes,5.0,Norte,1,Amapá,BR16,Macapá,BR1600303,Yes
bf240fb5-936d-3c28-8409-e0ec0e1566bf,Brazil,government,16002075,ESC EST GAL CARROMBERT PEREIRA DA COSTA,0.1419,-51.1476,1.0,92,No,Estadual,Rural,No,0.0,Norte,1,Amapá,BR16,Macapá,BR1600303,No
7c56ba22-04a4-3397-b086-9fcd5a0e073c,Brazil,government,16002083,ESC EST MARIO DAVID ANDREAZZA,0.0483,-51.0467,1.0,680,Yes,Estadual,Urban,Yes,5.0,Norte,1,Amapá,BR16,Macapá,BR1600303,Yes
31bb7dde-9260-3fb8-992b-a2efc506633f,Brazil,government,16002091,ESC EST ANTONIO BRAULIO DE SOUZA,0.2806,-51.0174,1.0,26,No,Estadual,Rural,No,0.0,Norte,1,Amapá,BR16,Macapá,BR1600303,No
19779d3a-c5c2-39eb-bfd9-b038b5dda6a7,Brazil,government,16002105,ESC EST N S DE NAZARE,0.0906,-51.1174,1.0,274,Yes,Estadual,Urban,Yes,2.0,Norte,1,Amapá,BR16,Macapá,BR1600303,Yes
7e2aa844-4794-33ce-9a45-55d4273742cf,Brazil,government,16002113,ESC EST NAZARE DA PEDREIRA,0.3007,-50.8678,1.0,77,No,Estadual,Rural,No,0.0,Norte,1,Amapá,BR16,Macapá,BR1600303,No
76c7e221-0245-3451-b8d9-f646ef6372ee,Brazil,government,16002148,ESC EST PROF M MERIAN DOS S C FERNANDES,0.0988,-51.0572,1.0,900,No,Estadual,Urban,Yes,5.0,Norte,1,Amapá,BR16,Macapá,BR1600303,Yes
82b1259b-1f58-3b2f-9bfe-3ad47dce5e3d,Brazil,government,16002156,ESC EST REINALDO MAURICIO GOLBERT DAMASCENO,0.0234,-51.0859,1.0,1250,Yes,Estadual,Urban,Yes,5.0,Norte,1,Amapá,BR16,Macapá,BR1600303,Yes
6b7d045b-69f7-3367-82aa-82f7b4400f7f,Brazil,government,16002164,ESC EST NESTOR BARBOSA DA SILVA,0.2428,-50.9602,1.0,74,No,Estadual,Rural,Yes,5.0,Norte,1,Amapá,BR16,Macapá,BR1600303,No
9423c5e4-a1c4-38c5-8b4f-ec0246936940,Brazil,government,16002172,ESC EST RETIRO SANTO ANTONIO DA PEDREIRA,0.3691,-50.8282,1.0,79,No,Estadual,Rural,No,0.0,Norte,1,Amapá,BR16,Macapá,BR1600303,No
f7644f6d-a8de-39f9-afb9-7ea961b52a86,Brazil,government,16002199,ESC EST SAO LAZARO,0.0704,-51.0601,1.0,428,No,Estadual,Urban,Yes,5.0,Norte,1,Amapá,BR16,Macapá,BR1600303,Yes
a86eaf69-49ea-3ae5-abcc-0178ec5c4dfc,Brazil,government,16002237,ESC EST PROF JOAQUIM MANOEL DE JESUS PICANCO,0.3107,-50.9354,1.0,44,No,Estadual,Rural,No,0.0,Norte,1,Amapá,BR16,Macapá,BR1600303,No
aa71ff63-e6e1-39d4-a36b-f5f122f71b29,Brazil,government,16002245,ESC EST ANTONIO JOAO,0.0419,-51.0703,1.0,531,Yes,Estadual,Urban,Yes,2.0,Norte,1,Amapá,BR16,Macapá,BR1600303,Yes
55764001-3fc2-3db2-b84b-f6245139f4db,Brazil,government,16002253,ESC EST ARACARY CORREA ALVES,0.0439,-51.0488,1.0,265,Yes,Estadual,Urban,Yes,5.0,Norte,1,Amapá,BR16,Macapá,BR1600303,Yes
2df2e3d0-501a-329e-bcbd-ed2dcb46c2e9,Brazil,government,16002261,ESC EST ARIRI,0.2981,-51.1336,1.0,40,Yes,Estadual,Rural,No,0.0,Norte,1,Amapá,BR16,Macapá,BR1600303,No
071f0f4f-1187-3d9a-a979-f2d7ddc19ee0,Brazil,government,16002270,ESC EST AUGUSTO DOS ANJOS,0.0508,-51.0557,1.0,1213,Yes,Estadual,Urban,Yes,5.0,Norte,1,Amapá,BR16,Macapá,BR1600303,Yes
a433c138-3f06-3369-a087-f795858be6f0,Brazil,government,16002288,ESC EST BACABA,0.1056,-51.066,0.94,25,No,Estadual,Rural,No,0.0,Norte,1,Amapá,BR16,Macapá,BR1600303,No
a7d9f5d9-1e40-304a-a40d-5ebe30163de0,Brazil,government,16002296,ESC EST BARAO DO RIO BRANCO,0.0397,-51.0533,1.0,568,Yes,Estadual,Urban,Yes,5.0,Norte,1,Amapá,BR16,Macapá,BR1600303,Yes
e78318e4-b7b4-343d-bfcf-cb37a42737f2,Brazil,government,16002300,ESC EST CARAPANATUBA,0.1928,-50.8244,0.67,130,No,Estadual,Rural,No,0.0,Norte,1,Amapá,BR16,Macapá,BR1600303,No
1c214452-66e8-3c6f-ad42-2c0352d94c83,Brazil,government,16002318,ESC EST CASTRO ALVES,0.0524,-51.0593,1.0,402,Yes,Estadual,Urban,Yes,5.0,Norte,1,Amapá,BR16,Macapá,BR1600303,Yes
f97d1d2e-027c-3bfc-b8c8-6f2464274de0,Brazil,government,16002326,ESC EST CECILIA PINTO,0.0142,-51.0701,1.0,1031,Yes,Estadual,Urban,Yes,5.0,Norte,1,Amapá,BR16,Macapá,BR1600303,Yes
305b9314-d3ef-3e87-b30d-bd7440714c0c,Brazil,government,16002334,ESC EST COELHO NETO,0.0246,-51.0765,1.0,972,Yes,Estadual,Urban,Yes,5.0,Norte,1,Amapá,BR16,Macapá,BR1600303,Yes
ea0f55bc-2878-39be-8415-0949f18289c6,Brazil,government,16002350,ESC EST DANIEL DE CARVALHO,0.3372,-50.8751,1.0,323,Yes,Estadual,Rural,Yes,5.0,Norte,1,Amapá,BR16,Macapá,BR1600303,Yes
01ffa629-9ad2-38ce-a8ae-4bfb98cd51c0,Brazil,government,16002369,ESC EST DEUSOLINA SALLES FARIAS,0.0556,-51.0583,1.0,1041,Yes,Estadual,Urban,Yes,5.0,Norte,1,Amapá,BR16,Macapá,BR1600303,Yes
17e6b6bb-7a64-3bc2-b301-942d17ac18ca,Brazil,government,16002377,ESC EST DEUZUITE M C CAVALCANTE,0.0455,-51.0448,1.0,476,Yes,Estadual,Urban,Yes,2.0,Norte,1,Amapá,BR16,Macapá,BR1600303,Yes
a8a1be84-9eb6-3349-9ae7-687b7f18a35b,Brazil,government,16002385,ESC EST DOM ARISTIDES PIROVANO,0.0323,-51.0671,1.0,450,No,Estadual,Urban,Yes,5.0,Norte,1,Amapá,BR16,Macapá,BR1600303,Yes
503df7f4-ac82-35d3-aab8-3ab296f536b7,Brazil,government,16002393,ESC EST DR ALEXANDRE VAZ TAVARES,0.0295,-51.0595,1.0,1455,Yes,Estadual,Urban,Yes,5.0,Norte,1,Amapá,BR16,Macapá,BR1600303,Yes
2c4fb1ad-6a4f-37fb-9600-1efdea6392a8,Brazil,government,16002407,ESC EST DR COARACY NUNES,0.0337,-51.0649,1.0,659,Yes,Estadual,Urban,Yes,5.0,Norte,1,Amapá,BR16,Macapá,BR1600303,Yes
b608deb6-3cad-3ad0-a07a-432406f53e8a,Brazil,government,16002415,ESC EST EDGAR LINO DA SILVA,0.0487,-51.0527,1.0,631,Yes,Estadual,Urban,Yes,5.0,Norte,1,Amapá,BR16,Macapá,BR1600303,Yes
21c38528-bc7e-3186-9e43-335d2775e94e,Brazil,government,16002423,ESC EST FOZ DO RIO PEDREIRA,0.3029,-51.0647,1.0,0,,Estadual,Rural,,,Norte,1,Amapá,BR16,Macapá,BR1600303,No
940e4ddc-a182-38d9-ad86-a336b6180fa1,Brazil,government,16002431,ESC EST GAL AZEVEDO COSTA,0.0443,-51.055,0.94,837,Yes,Estadual,Urban,Yes,5.0,Norte,1,Amapá,BR16,Macapá,BR1600303,Yes
a02a6589-2b96-3b11-b2a1-7d992a250bba,Brazil,government,16002440,ESC EST GONCALVES DIAS,0.0202,-51.0733,1.0,979,Yes,Estadual,Urban,Yes,5.0,Norte,1,Amapá,BR16,Macapá,BR1600303,Yes
8fbc2e78-1b30-3d49-b829-15d78d20e0cc,Brazil,government,16002458,CENTRO EDUC PROFISSIONAL GRAZIELA REIS DE SOUZA,0.034,-51.0569,0.94,351,Yes,Estadual,Urban,Yes,5.0,Norte,1,Amapá,BR16,Macapá,BR1600303,Yes
c79b4e8d-38f8-36a5-9ef9-7de5763cf8fd,Brazil,government,16002466,ESC EST MODELO GUANABARA,0.0377,-51.056,0.94,603,Yes,Estadual,Urban,Yes,5.0,Norte,1,Amapá,BR16,Macapá,BR1600303,Yes
7a62c702-b775-3676-b249-8cf7f4ba8deb,Brazil,government,16002474,ESC EST JOAO MACIEL AMANAJAS,0.1928,-50.8244,0.67,131,No,Estadual,Rural,No,0.0,Norte,1,Amapá,BR16,Macapá,BR1600303,No
1e783140-99cf-32fb-a5da-ded97c3d1a99,Brazil,government,16002482,ESC EST IRMA SANTINA RIOLI,0.0276,-51.061,0.94,1134,No,Estadual,Urban,Yes,5.0,Norte,1,Amapá,BR16,Macapá,BR1600303,Yes
4411e8a6-8c89-3ad1-864f-f566faa770a9,Brazil,government,16002490,ESC EST JESUS DE NAZARE,0.0456,-51.0642,1.0,417,Yes,Estadual,Urban,Yes,5.0,Norte,1,Amapá,BR16,Macapá,BR1600303,Yes
462a607b-02b2-33ce-b2af-16bd7216b3c3,Brazil,government,16002504,ESC EST JOSE BONIFACIO,0.1343,-51.0529,1.0,271,Yes,Estadual,Rural,Yes,5.0,Norte,1,Amapá,BR16,Macapá,BR1600303,Yes
0a56ef64-edaf-347a-963f-0ef7cc8240c2,Brazil,government,16002512,ESC EST JOSE DE ALENCAR,0.0438,-51.0499,1.0,803,Yes,Estadual,Urban,Yes,5.0,Norte,1,Amapá,BR16,Macapá,BR1600303,Yes
613e085f-0b51-3bdc-8aa6-49439c050bca,Brazil,government,16002520,ESC EST JOSE DE ANCHIETA,0.0359,-51.0687,1.0,762,Yes,Estadual,Urban,Yes,5.0,Norte,1,Amapá,BR16,Macapá,BR1600303,Yes
77538323-20e2-35ef-85ce-2a8864c5d734,Brazil,government,16002547,ESC EST PROF JOSEFA JUCILEIDE A COLARES,0.0319,-51.0827,1.0,820,No,Estadual,Urban,Yes,2.0,Norte,1,Amapá,BR16,Macapá,BR1600303,Yes
e519f54f-3891-3272-842e-5d863df4fad1,Brazil,government,16002563,ESC EST LAGOA DOS INDIOS,0.0052,-51.1152,1.0,289,No,Estadual,Rural,Yes,5.0,Norte,1,Amapá,BR16,Macapá,BR1600303,Yes
65a7b7e1-baf4-3f2d-93fa-5224009ae212,Brazil,government,16002571,ESC EST OLENDINA FERREIRA DO ROSARIO,0.7785,-50.5526,0.67,22,No,Estadual,Rural,No,0.0,Norte,1,Amapá,BR16,Macapá,BR1600303,No
02c03b2d-b661-3a3c-b327-4966985991dc,Brazil,government,16002580,ESC EST MARIA DO CARMO VIANA DOS ANJOS,0.0965,-51.0565,1.0,284,Yes,Estadual,Urban,Yes,5.0,Norte,1,Amapá,BR16,Macapá,BR1600303,Yes
827635f3-3521-3da8-a8ee-ee2595cb0d29,Brazil,government,16002598,ESC EST PROF,0.0234,-51.0625,1.0,141,Yes,Estadual,Urban,Yes,5.0,Norte,1,Amapá,BR16,Macapá,BR1600303,Yes
e0534b85-2451-3854-bff3-6929ad815549,Brazil,government,16002601,ESC EST MARIA DO SOCORRO A SMITH,0.0318,-51.116,0.94,459,Yes,Estadual,Urban,Yes,5.0,Norte,1,Amapá,BR16,Macapá,BR1600303,Yes
00e28888-1e6f-3fc3-ac8d-b3b28a2e2ea3,Brazil,government,16002610,ESC EST MARIO QUIRINO DA SILVA,0.0154,-51.0823,1.0,1304,No,Estadual,Urban,Yes,5.0,Norte,1,Amapá,BR16,Macapá,BR1600303,Yes
a50ba4fb-2b89-369b-8ccd-0cd7095a9ead,Brazil,government,16002628,ESC EST RAIMUNDO PEREIRA DA SILVA,0.1826,-51.272,0.94,155,No,Estadual,Rural,No,0.0,Norte,1,Amapá,BR16,Macapá,BR1600303,Yes
d8514644-b152-32f2-b53e-c39ec2c9b153,Brazil,government,16002636,ESC EST MARUANUM II,0.1755,-51.2472,1.0,37,No,Estadual,Rural,No,0.0,Norte,1,Amapá,BR16,Macapá,BR1600303,No
722cf00f-d600-39b8-9ea0-7f353cfc77bd,Brazil,government,16002644,ESC EST N S DO DESTERRO,0.3029,-51.0647,1.0,0,,Estadual,Rural,,,Norte,1,Amapá,BR16,Macapá,BR1600303,No
dfc6b99a-c364-3d7d-b506-13a7b519ae56,Brazil,government,16002652,ESC EST PEDRO ALCANTARA CHAVES LOPES,0.2694,-50.9149,1.0,239,No,Estadual,Rural,No,0.0,Norte,1,Amapá,BR16,Macapá,BR1600303,No
49218a17-6c5b-38ac-bf3f-f26f3124b483,Brazil,government,16002660,ESC EST TIRADENTES,0.0421,-51.0724,1.0,418,Yes,Estadual,Urban,Yes,5.0,Norte,1,Amapá,BR16,Macapá,BR1600303,Yes
09ee6e59-6f48-3e2e-b9ba-2f2045b9c0c7,Brazil,government,16002679,ESC EST BERNADINO SILVA,0.7202,-50.7972,1.0,42,No,Estadual,Rural,Yes,2.0,Norte,1,Amapá,BR16,Macapá,BR1600303,Yes
061d5acb-9d15-3575-9ab8-8898ca2a5a22,Brazil,government,16002687,ESC EST PREDICANDA C AMORIM LOPES,0.0384,-51.081,0.94,682,Yes,Estadual,Urban,Yes,5.0,Norte,1,Amapá,BR16,Macapá,BR1600303,Yes
81088f89-b76d-3528-9638-3ed7bab73c90,Brazil,government,16002695,ESC EST PRINCESA IZABEL,0.0386,-51.0563,1.0,396,Yes,Estadual,Urban,Yes,5.0,Norte,1,Amapá,BR16,Macapá,BR1600303,Yes
53e8c2dd-61f4-3da2-a8cd-a5fcff0cd273,Brazil,government,16002709,ESC EST PROF IRINEU DA GAMA PAES,0.009,-51.0933,0.94,1530,Yes,Estadual,Urban,Yes,5.0,Norte,1,Amapá,BR16,Macapá,BR1600303,Yes
e6477265-2e28-343d-8453-5a54ce3cc5ea,Brazil,government,16002717,ESC EST PROF LAURO DE CARVALHO CHAVES,0.0135,-51.0744,1.0,931,Yes,Estadual,Urban,Yes,5.0,Norte,1,Amapá,BR16,Macapá,BR1600303,Yes
b38649f8-8bba-32ba-ac0d-3c2f7a6b745b,Brazil,government,16002725,ESC EST PROF LUCIMAR A DEL CASTILLO,0.0365,-51.0753,1.0,330,No,Estadual,Urban,Yes,5.0,Norte,1,Amapá,BR16,Macapá,BR1600303,Yes
e6a2beee-4009-33fb-af7f-f1c08eef819e,Brazil,government,16002733,ESC EST PROF MARIA CARMELITA DO CARMO,0.0274,-51.0752,1.0,743,Yes,Estadual,Urban,Yes,5.0,Norte,1,Amapá,BR16,Macapá,BR1600303,Yes
45138095-ff95-3b38-92fc-eeac07c82c8f,Brazil,government,16002741,ESC EST PROF RUTH DE ALMEIDA BEZERRA,0.068,-51.0579,0.94,783,Yes,Estadual,Urban,Yes,5.0,Norte,1,Amapá,BR16,Macapá,BR1600303,Yes
3ded7344-5b54-3249-91f8-28078915b456,Brazil,government,16002750,ESC EST SANTA INES,0.0261,-51.0541,1.0,642,Yes,Estadual,Urban,Yes,5.0,Norte,1,Amapá,BR16,Macapá,BR1600303,Yes
12e99a94-e672-36dc-afea-2f10efcf8548,Brazil,government,16002784,ESC EST SANTO ANTONIO DO MATAPI,0.3029,-51.0647,0.67,53,No,Estadual,Rural,No,0.0,Norte,1,Amapá,BR16,Macapá,BR1600303,No
f877f15e-c38c-365a-a848-a516c7a5a751,Brazil,government,16002792,ESC EST SAO BENEDITO,0.0486,-51.0542,1.0,475,Yes,Estadual,Urban,Yes,5.0,Norte,1,Amapá,BR16,Macapá,BR1600303,Yes
928f3a30-9f97-3be5-bd30-a716dea6ef94,Brazil,government,16002806,ESC EST SAO PEDRO DO CARANA,0.3029,-51.0647,0.67,22,No,Estadual,Rural,Yes,2.0,Norte,1,Amapá,BR16,Macapá,BR1600303,Yes
acdba513-7333-3d14-b283-260829ff4a19,Brazil,government,16002814,ESC EST SEBASTIANA LENIR DE ALMEIDA,0.0258,-51.0728,1.0,1001,Yes,Estadual,Urban,Yes,5.0,Norte,1,Amapá,BR16,Macapá,BR1600303,Yes
ba81d73f-e9e1-379e-96f6-6d0af6164812,Brazil,government,16002822,ESC EST SEBASTIAO CORDEIRO SENA,0.7516,-50.8251,1.0,123,No,Estadual,Rural,No,0.0,Norte,1,Amapá,BR16,Macapá,BR1600303,No
18cb6804-66ce-3098-b949-b1c43bd7649b,Brazil,government,16002830,ESC EST SERAFINI COSTAPERARIA,0.0915,-51.063,0.94,806,Yes,Estadual,Urban,Yes,5.0,Norte,1,Amapá,BR16,Macapá,BR1600303,Yes
dc33681b-5ff7-3a60-b232-e6ca65b3c3ca,Brazil,government,16002849,ESC EST TEIXEIRA DE FREITAS,0.2994,-50.9873,1.0,116,Yes,Estadual,Rural,Yes,2.0,Norte,1,Amapá,BR16,Macapá,BR1600303,Yes
45d461b4-d77a-3eea-bda3-b51e673289ad,Brazil,government,16002857,ESC EST TESSALONICA,0.36,-51.1239,0.89,229,No,Estadual,Rural,No,0.0,Norte,1,Amapá,BR16,Macapá,BR1600303,No
68b4f857-bc76-3b98-8a48-f49087178f58,Brazil,government,16002865,ESC EST PROF ANTONIO FIGUEIREDO DA SILVA,0.2325,-51.1864,1.0,180,No,Estadual,Rural,Yes,5.0,Norte,1,Amapá,BR16,Macapá,BR1600303,Yes
51e64929-c48c-3006-be10-4a38d1d45297,Brazil,government,16002873,ESC EST PROF ZOLITO DE JESUS NUNES,0.0175,-51.062,0.94,967,Yes,Estadual,Urban,Yes,2.0,Norte,1,Amapá,BR16,Macapá,BR1600303,Yes
9a67324c-365d-32e3-b532-fe58b837d710,Brazil,government,16002881,ESC EST ANTONIO CORDEIRO PONTES,0.0407,-51.0521,1.0,1112,Yes,Estadual,Urban,Yes,5.0,Norte,1,Amapá,BR16,Macapá,BR1600303,Yes
1aadfcc4-899d-34e4-8c2d-47d471bcdb8c,Brazil,government,16002911,ESC MUL PROF EUNICE DAS CHAGAS FERNANDES SOUSA,0.0559,-51.0543,1.0,756,Yes,Municipal,Urban,Yes,5.0,Norte,1,Amapá,BR16,Macapá,BR1600303,Yes
0c14f4f2-ba60-3652-a8e5-82ae12aa10a5,Brazil,government,16002920,ESC MUL JOAO ROLINDO DO CARMO,0.2896,-50.7133,1.0,22,No,Municipal,Rural,No,0.0,Norte,1,Amapá,BR16,Macapá,BR1600303,No
b6e26a04-04f1-33c8-8432-7b70e224deaf,Brazil,government,16002938,ESC MUL HILDEMAR MAIA,0.0278,-51.0562,1.0,440,Yes,Municipal,Urban,Yes,5.0,Norte,1,Amapá,BR16,Macapá,BR1600303,Yes
47906770-6644-3463-b82d-fc38839e620f,Brazil,government,16002954,ESC MUL RONDONIA,0.0454,-51.0593,1.0,408,Yes,Municipal,Urban,Yes,5.0,Norte,1,Amapá,BR16,Macapá,BR1600303,Yes
a4846251-ad3a-33b3-a00c-14fb3e9c4a4d,Brazil,government,16002962,ESC MUL AMAPA,0.0235,-51.0611,1.0,609,Yes,Municipal,Urban,Yes,5.0,Norte,1,Amapá,BR16,Macapá,BR1600303,Yes
2acd523b-5381-3e69-a58c-a4bb181d51f3,Brazil,government,16002970,ESC MUL ARACY NASCIMENTO,0.0396,-51.0743,1.0,638,Yes,Municipal,Urban,Yes,5.0,Norte,1,Amapá,BR16,Macapá,BR1600303,Yes
d57c4171-f28d-3ff7-8a7b-156c3c6f22c7,Brazil,government,16002997,ESC MUL CAMPINA DE SAO BENEDITO,0.7064,-50.6488,1.0,31,No,Municipal,Rural,No,0.0,Norte,1,Amapá,BR16,Macapá,BR1600303,No
4b64c4a5-7879-311b-a5bb-eddfbf52ede9,Brazil,government,16003004,ESC MUL CAMPINA GRANDE VALMITO MORAES BRAZAO,0.2262,-51.1303,1.0,76,No,Municipal,Rural,No,0.0,Norte,1,Amapá,BR16,Macapá,BR1600303,No
469269e4-694d-3cce-b376-aae376cbfd1e,Brazil,government,16003012,ESC MUL ESFORCO POPULAR,0.0116,-51.0773,1.0,1061,Yes,Municipal,Urban,Yes,5.0,Norte,1,Amapá,BR16,Macapá,BR1600303,Yes
da7d2613-979b-329c-ae5b-4d5e8b1ec53e,Brazil,government,16003020,ESC MUL EUNICE PICANCO,0.022,-51.0786,0.94,763,No,Municipal,Urban,Yes,5.0,Norte,1,Amapá,BR16,Macapá,BR1600303,Yes
14160b59-4b95-35db-ae4b-42d3d92b33ba,Brazil,government,16003039,ESC MUL JARDIM FELICIDADE,0.0842,-51.0627,1.0,950,No,Municipal,Urban,Yes,5.0,Norte,1,Amapá,BR16,Macapá,BR1600303,Yes
81c401d6-d407-325e-b6bd-b0f0d28685d3,Brazil,government,16003047,EMEF JOSE DUARTE DE AZEVEDO,0.0593,-51.0532,1.0,702,Yes,Municipal,Urban,Yes,5.0,Norte,1,Amapá,BR16,Macapá,BR1600303,Yes
d019d86d-e612-3b6e-ba29-4988fcd65afc,Brazil,government,16003055,ESC MUL LIBERDADE DO PACUI,0.814,-50.7189,0.94,47,No,Municipal,Rural,Yes,5.0,Norte,1,Amapá,BR16,Macapá,BR1600303,No
29f1bfc7-ad97-395f-8345-a669d6310a1a,Brazil,government,16003063,ESC MUL MAESTRO MIGUEL A DA SILVA,0.051,-51.0472,0.94,1262,Yes,Municipal,Urban,Yes,5.0,Norte,1,Amapá,BR16,Macapá,BR1600303,Yes
03b40c68-b10e-3b2b-ba71-f9a5f81a49d3,Brazil,government,16003071,ESC MUL PARAISO DAS ACACIAS,0.011,-51.0744,0.94,408,Yes,Municipal,Urban,Yes,5.0,Norte,1,Amapá,BR16,Macapá,BR1600303,Yes
e8c9f395-baa7-3447-a638-78b100a761ea,Brazil,government,16003080,ESC MUL RORAIMA,0.0239,-51.0711,1.0,524,Yes,Municipal,Urban,Yes,5.0,Norte,1,Amapá,BR16,Macapá,BR1600303,Yes
ced5bf05-4b7f-30b8-8724-ba8ebf880c2b,Brazil,government,16003179,ESC EST MANOEL JOSE SANTOS DA SILVA,0.3029,-51.0647,0.67,98,No,Estadual,Rural,No,0.0,Norte,1,Amapá,BR16,Macapá,BR1600303,No
77cecfcd-3528-3d39-8bcb-accfffdb6d46,Brazil,government,16003209,ESC EST DOM JOSE MARITANO,0.0929,-51.0511,1.0,537,No,Estadual,Urban,Yes,5.0,Norte,1,Amapá,BR16,Macapá,BR1600303,Yes
9ea729ed-76de-3481-bc8f-cfebd3702f30,Brazil,government,16003250,ESC MUL PRATINHA,0.8267,-50.6291,1.0,87,No,Municipal,Rural,Yes,5.0,Norte,1,Amapá,BR16,Macapá,BR1600303,No
4a33269d-a41f-39a7-8ed1-1fd9ff997279,Brazil,government,16003314,JD INF MEU PE DE LARANJA LIMA,0.0368,-51.0687,1.0,597,No,Municipal,Urban,Yes,5.0,Norte,1,Amapá,BR16,Macapá,BR1600303,Yes
2c347156-2ed6-3c47-9fef-d3287237b049,Brazil,government,16003322,EMEI MUNDO DA CRIANCA,0.0576,-51.0546,1.0,543,No,Municipal,Urban,Yes,5.0,Norte,1,Amapá,BR16,Macapá,BR1600303,Yes
d39a1dfc-c983-372f-a41d-c7580a54e6e1,Brazil,government,16003330,CRECHE JD INF CANTINHO DO AMOR,0.0445,-51.0464,1.0,460,No,Municipal,Urban,Yes,5.0,Norte,1,Amapá,BR16,Macapá,BR1600303,Yes
4a88b1ec-330d-3076-97c5-86a881a12484,Brazil,government,16003349,JD INF O PEQUENO PRINCIPE,0.0378,-51.0557,1.0,441,No,Municipal,Urban,Yes,5.0,Norte,1,Amapá,BR16,Macapá,BR1600303,Yes
555455b9-a199-3dfe-a858-ddc20eeb5212,Brazil,government,16003357,ESC EST PROF ANA LUIZA DE SOUZA MORAES,0.0185,-51.0795,1.0,429,No,Municipal,Urban,Yes,5.0,Norte,1,Amapá,BR16,Macapá,BR1600303,Yes
18c738ce-35d1-35c8-9761-a098d8bf8489,Brazil,government,16003373,ESC EST SANTA MARIA,0.0392,-51.1305,1.0,214,No,Estadual,Urban,Yes,5.0,Norte,1,Amapá,BR16,Macapá,BR1600303,Yes
45ad96ff-4f76-33dd-9969-16037bb5fade,Brazil,government,16003390,JD INF SEMENTINHA,0.0522,-51.0617,1.0,144,No,Municipal,Urban,Yes,2.0,Norte,1,Amapá,BR16,Macapá,BR1600303,Yes
dc4bb2e4-b275-3fcf-baa4-3dab3539d51e,Brazil,government,16003403,ESC EST PROF NILDA DA ROCHA PORTAL,0.0202,-51.0672,1.0,412,No,Municipal,Urban,Yes,5.0,Norte,1,Amapá,BR16,Macapá,BR1600303,Yes
43f79790-de3b-36f3-9f06-9c990be9a178,Brazil,government,16003420,ESC EST PROF ONEIDE PINTO LIMA,0.0837,-51.0731,1.0,268,Yes,Estadual,Urban,Yes,5.0,Norte,1,Amapá,BR16,Macapá,BR1600303,Yes
c809cbfb-0ce2-3d55-bda4-f2fb3e154900,Brazil,government,16003438,ESC EST PROF NELITA ROCHA BRITO DIAS,0.0096,-51.092,0.94,706,Yes,Estadual,Urban,Yes,2.0,Norte,1,Amapá,BR16,Macapá,BR1600303,Yes
6e86a7e6-b46b-3104-be7f-022b87ad6279,Brazil,government,16003446,ESC EST PEQUENO CIDADAO,0.0252,-51.0681,1.0,325,Yes,Municipal,Urban,Yes,5.0,Norte,1,Amapá,BR16,Macapá,BR1600303,Yes
10eef88d-61c7-3abf-9654-979359e1d706,Brazil,government,16003462,JD INF TIA MADALENA,0.0184,-51.0625,1.0,581,No,Municipal,Urban,Yes,5.0,Norte,1,Amapá,BR16,Macapá,BR1600303,Yes
19285c06-bcd4-3749-951e-0fa0e6c84af3,Brazil,government,16003497,ESC EST MAE ANGELICA,0.0153,-51.0831,1.0,219,Yes,Estadual,Urban,Yes,5.0,Norte,1,Amapá,BR16,Macapá,BR1600303,Yes
b1d34c8e-bcc2-3304-bf49-26a785109805,Brazil,government,16003500,ESC MUL TESSALONICA,0.3569,-51.126,0.94,156,No,Municipal,Rural,No,0.0,Norte,1,Amapá,BR16,Macapá,BR1600303,No
1b769b05-7028-37da-a668-7a702b22164c,Brazil,government,16003519,ESC MUL A E I O U,0.0786,-51.064,0.94,511,No,Municipal,Urban,Yes,5.0,Norte,1,Amapá,BR16,Macapá,BR1600303,Yes
a81e77d3-e911-3a11-94e5-8d253f4d6463,Brazil,government,16003535,ESC MUL MORANGUINHO,0.0125,-51.0859,1.0,691,No,Municipal,Urban,No,0.0,Norte,1,Amapá,BR16,Macapá,BR1600303,No
a240d5bc-ad23-317a-8cc0-a1640e99be76,Brazil,government,16003543,ESC MUL PAI NOSSO,0.0306,-51.0776,1.0,676,No,Municipal,Urban,Yes,5.0,Norte,1,Amapá,BR16,Macapá,BR1600303,Yes
d5fd4df2-24e7-389e-a632-30113e79e0a8,Brazil,government,16003560,ESC MUL MARIA JOSE DE SOUZA E SILVA,0.0971,-51.0565,1.0,375,Yes,Municipal,Urban,Yes,5.0,Norte,1,Amapá,BR16,Macapá,BR1600303,Yes
58e42c3c-78f3-3f6e-9289-d3140bef488d,Brazil,government,16003594,ESC EST ROSA DOS SANTOS SARGES,1.0075,-50.1146,1.0,18,No,Estadual,Rural,No,0.0,Norte,1,Amapá,BR16,Macapá,BR1600303,No
5ac76289-0c3c-3847-90f7-4ed14d42ebcb,Brazil,government,16003608,ESC EST IGARAPE GRANDE DA TERRA GRANDE,1.0906,-50.0365,1.0,26,No,Estadual,Rural,No,0.0,Norte,1,Amapá,BR16,Macapá,BR1600303,No
58980e9f-a443-34a0-8f73-54fa6a79c3e1,Brazil,government,16003616,ESC EST MANOEL DOS REIS,0.8755,-50.4682,1.0,58,No,Estadual,Rural,No,0.0,Norte,1,Amapá,BR16,Macapá,BR1600303,No
9e4f3acb-447a-3904-bf45-219baa98ac06,Brazil,government,16003640,ESC EST ANDRE NEVES ROSA,0.7785,-50.5526,0.67,35,No,Estadual,Rural,Yes,5.0,Norte,1,Amapá,BR16,Macapá,BR1600303,Yes
194197e4-a4a2-3da1-9ea9-e87496091c67,Brazil,government,16003659,ESC EST BOM JARDIM,0.9537,-50.1161,0.67,7,No,Estadual,Rural,No,0.0,Norte,1,Amapá,BR16,Macapá,BR1600303,No
7bba1db9-dee9-3967-8b70-0d55ba87ee03,Brazil,government,16003667,ESC EST CANAL DO GUIMARAES,0.9074,-50.076,0.94,47,No,Estadual,Rural,No,0.0,Norte,1,Amapá,BR16,Macapá,BR1600303,No
5de2ee94-42d0-3318-88d3-470ed221c94d,Brazil,government,16003675,ESC EST CLAUDIO DOS SANTOS BARBOSA,0.8719,-50.0469,1.0,120,Yes,Estadual,Rural,No,0.0,Norte,1,Amapá,BR16,Macapá,BR1600303,No
e36a4010-f235-3795-87c2-b9530f085fbb,Brazil,government,16003683,ESC EST CUBANA,0.9537,-50.1161,0.67,27,No,Estadual,Rural,No,0.0,Norte,1,Amapá,BR16,Macapá,BR1600303,No
bf5af49d-5c11-3f73-a188-e752c61892c9,Brazil,government,16003691,ESC EST BENTO TOLOSA DE SANTANA,0.8725,-50.2855,1.0,101,No,Estadual,Rural,No,0.0,Norte,1,Amapá,BR16,Macapá,BR1600303,No
cd183596-d7f7-36a3-94fe-d36edc2d6d76,Brazil,government,16003705,ESC EST FRANCO GRANDE,0.937,-50.0407,0.94,41,No,Estadual,Rural,No,0.0,Norte,1,Amapá,BR16,Macapá,BR1600303,No
af7d1ce2-2020-3d27-83f1-ccdc81444fd8,Brazil,government,16003713,ESC EST BENEVENUTO SOARES RODRIGUES,0.0442,-51.0467,1.0,99,No,Estadual,Rural,No,0.0,Norte,1,Amapá,BR16,Macapá,BR1600303,No
e2143d92-e7a2-301e-8082-5025a28f3a86,Brazil,government,16003721,ESC EST ROMANA FARIAS,0.9537,-50.1161,0.67,21,No,Estadual,Rural,No,0.0,Norte,1,Amapá,BR16,Macapá,BR1600303,No
7c287fa8-c14f-33b7-8380-0fe7ee01b3ef,Brazil,government,16003730,ESC EST IGARAPE DO BURITIZAL,0.8715,-50.0936,1.0,56,No,Estadual,Rural,No,0.0,Norte,1,Amapá,BR16,Macapá,BR1600303,No
c360291a-9156-301e-9755-f3edd60b8003,Brazil,government,16003748,ESC EST IGARAPE DO MARINHEIRO,0.9047,-50.0223,1.0,15,No,Estadual,Rural,No,0.0,Norte,1,Amapá,BR16,Macapá,BR1600303,No
e7a96d4a-7bdb-3c76-a0eb-355ca8b0ee37,Brazil,government,16003756,ESC EST IGARAPE GRANDE DO CURUA,0.7603,-50.1721,1.0,56,No,Estadual,Rural,No,0.0,Norte,1,Amapá,BR16,Macapá,BR1600303,No
df84c883-5643-3513-90ad-c43c6adeb300,Brazil,government,16003772,ESC EST ITAMATATUBA,0.7596,-50.2861,1.0,266,No,Estadual,Rural,No,0.0,Norte,1,Amapá,BR16,Macapá,BR1600303,No
8e17859a-4047-3200-8f90-c421a38be06f,Brazil,government,16003780,ESC EST MANOEL PEREIRA HERCULANO,0.8553,-50.2425,1.0,101,No,Estadual,Rural,No,0.0,Norte,1,Amapá,BR16,Macapá,BR1600303,No
6ec2276e-2a90-3386-b2bd-d377dea2acde,Brazil,government,16003799,ESC EST MARIA JOSE CAMPELO DA SILVA,0.762,-50.1696,0.94,252,No,Estadual,Rural,No,0.0,Norte,1,Amapá,BR16,Macapá,BR1600303,No
728960bc-c1f6-33fb-9bda-6d7c1f5e4c78,Brazil,government,16003802,ESC EST PROF NAIR CORDEIRO MARQUES,0.9537,-50.1161,0.67,76,No,Estadual,Rural,No,0.0,Norte,1,Amapá,BR16,Macapá,BR1600303,No
4759ee29-a393-358b-ba5c-146e4e261bc6,Brazil,government,16003810,ESC EST JULIA BRUNO,0.9537,-50.1161,0.67,18,No,Estadual,Rural,No,0.0,Norte,1,Amapá,BR16,Macapá,BR1600303,No
99fed044-a25f-3703-b3fd-f8284fe66a02,Brazil,government,16003829,ESC EST PROF GLICERIO DE S FIGUEIREDO,0.9537,-50.1161,0.67,41,No,Estadual,Rural,No,0.0,Norte,1,Amapá,BR16,Macapá,BR1600303,No
92e5f756-da3f-37ae-8a24-40251828ba68,Brazil,government,16003837,ESC EST ERIVALDO FERREIRA DOS SANTOS,1.0482,-50.075,0.94,10,No,Estadual,Rural,No,0.0,Norte,1,Amapá,BR16,Macapá,BR1600303,No
98f6836c-1b7d-3f36-9005-4161c2e62926,Brazil,government,16003853,ESC EST VILA MACEDONIA,0.8765,-50.048,0.94,49,No,Estadual,Rural,No,0.0,Norte,1,Amapá,BR16,Macapá,BR1600303,No
6ef674d8-3100-3026-bb32-63e2345eb0fe,Brazil,government,16003861,ESC MUN JARANDUBA DO BAILIQUE,0.8831,-50.0632,1.0,41,No,Municipal,Rural,No,0.0,Norte,1,Amapá,BR16,Macapá,BR1600303,No
9b0eb8c6-5912-38f1-b7df-68e2471ebe4e,Brazil,government,16003896,CANAL DOS GUIMARAES,0.9073,-50.0758,1.0,24,No,Municipal,Rural,No,0.0,Norte,1,Amapá,BR16,Macapá,BR1600303,No
1a3d1167-6ea5-3154-b74b-e55b733afcc4,Brazil,government,16003900,ESC MUL VILA PROGRESSO,0.8715,-50.0492,1.0,178,Yes,Municipal,Rural,No,0.0,Norte,1,Amapá,BR16,Macapá,BR1600303,No
5d5d09a2-27d0-3fc1-85c9-951a124c7ee3,Brazil,government,16003918,ESC EST GOV IVANHOE GONCALVES MARTINS,-0.023,-51.1109,0.94,75,No,Estadual,Rural,No,0.0,Norte,1,Amapá,BR16,Macapá,BR1600303,No
49729d84-bbf1-39aa-859f-247667a2fb0b,Brazil,government,16003926,ESC EST JOSE DO PATROCINIO,-0.0544,-51.1129,1.0,808,Yes,Estadual,Rural,Yes,5.0,Norte,1,Amapá,BR16,Macapá,BR1600303,Yes
7b2ea361-0d29-31f3-b917-588160a28af3,Brazil,government,16003934,ESC MUL CAETANO DIAS TOMAZ,-0.0461,-51.117,0.94,737,No,Municipal,Rural,Yes,2.0,Norte,1,Amapá,BR16,Macapá,BR1600303,Yes
6b32ff2f-a79a-3b29-af5c-944d7b8f39d2,Brazil,government,16003942,ESC EST CATANZAL DO PACUI,0.7785,-50.5526,1.0,0,,Estadual,Rural,,,Norte,1,Amapá,BR16,Macapá,BR1600303,No
9901bbac-00f3-3aba-9228-71e3b3315664,Brazil,government,16003950,ESC EST GARIMPO DE SAO TOME,0.7794,-50.6864,1.0,65,No,Estadual,Rural,No,0.0,Norte,1,Amapá,BR16,Macapá,BR1600303,No
806c9731-2441-38dc-b5db-126e2b9d4dbf,Brazil,government,16003969,ESC EST JULIO GONCALVES DA COSTA,0.8479,-50.6618,1.0,269,No,Estadual,Rural,Yes,2.0,Norte,1,Amapá,BR16,Macapá,BR1600303,Yes
76684abc-59b6-3b1a-b484-ad90189c5d08,Brazil,government,16003977,ESC EST JOSE OLIVEIRA COELHO,0.8098,-50.6342,1.0,115,No,Estadual,Rural,No,0.0,Norte,1,Amapá,BR16,Macapá,BR1600303,No
c06f3b1c-1178-3ce3-a102-b0f8026e1ce3,Brazil,government,16003985,ESC EST SAO FRANCISCO DO ALTO,0.7453,-50.6751,1.0,48,No,Estadual,Rural,No,0.0,Norte,1,Amapá,BR16,Macapá,BR1600303,No
03c7fe63-fabb-3010-9f75-0529a7655de8,Brazil,government,16003993,ESC EST SAO FRANCISCO DO PIRIRIM,0.7651,-50.6296,1.0,47,No,Estadual,Rural,No,0.0,Norte,1,Amapá,BR16,Macapá,BR1600303,No
9414c21e-c01a-3cfa-aceb-fb30515aa774,Brazil,government,16004000,ESC EST SAO JOAQUIM DO PACUI,0.8075,-50.7528,1.0,377,Yes,Estadual,Rural,Yes,2.0,Norte,1,Amapá,BR16,Macapá,BR1600303,Yes
3723357c-fc3c-37c9-abd8-7b0dff5cadeb,Brazil,government,16004019,ESC EST SAO RAIMUNDO DO PIRIRIM,0.6305,-50.6734,1.0,38,No,Estadual,Rural,No,0.0,Norte,1,Amapá,BR16,Macapá,BR1600303,No
a234b182-d3b0-3124-8154-3a6c7401f2c6,Brazil,government,16004027,ESC EST SAO SEBASTIAO DA BOA VISTA,0.7955,-50.6459,1.0,54,No,Estadual,Rural,Yes,2.0,Norte,1,Amapá,BR16,Macapá,BR1600303,No
4b1c4763-002d-3e9a-8854-5e71aace0fd1,Brazil,government,16004035,ESC EST SAO TOME DO PACUI,0.8268,-50.6284,1.0,27,No,Estadual,Rural,Yes,5.0,Norte,1,Amapá,BR16,Macapá,BR1600303,No
dd0c55e1-a8ad-3620-9cae-3daf1d174fe8,Brazil,government,16004043,ESC EST TRACAJATUBA DO PIRIRIM III,0.6441,-50.6705,1.0,21,No,Estadual,Rural,Yes,2.0,Norte,1,Amapá,BR16,Macapá,BR1600303,No
19aad146-7b7c-3dac-a625-f97d1fcf3e8d,Brazil,government,16004078,ESC MUL DOIS IRMAOS,0.7785,-50.5526,1.0,0,,Municipal,Rural,,,Norte,1,Amapá,BR16,Macapá,BR1600303,No
8b261970-e857-3b4c-9a2b-349e67f74b0f,Brazil,government,16004086,ESC MUL ERIDIO ROCHA DA CONCEICAO,0.7205,-50.7087,1.0,107,No,Municipal,Rural,Yes,5.0,Norte,1,Amapá,BR16,Macapá,BR1600303,Yes
94de0ba7-eb88-357b-82cc-8cb9317cb935,Brazil,government,16004116,ESC MUL ACRE,0.7124,-51.4143,1.0,1142,Yes,Municipal,Urban,Yes,5.0,Norte,1,Amapá,BR16,Porto Grande,BR1600535,No
997900b0-c946-3b2f-9b70-7302be90002d,Brazil,government,16004124,ESC EST BOA ESPERANCA KM 114,0.5879,-51.6737,1.0,0,,Estadual,Rural,,,Norte,1,Amapá,BR16,Porto Grande,BR1600535,No
eb3200cb-175b-38ce-ad80-9ff42e9e9495,Brazil,government,16004132,ESC EST CAMPO VERDE,0.6768,-51.5149,1.0,104,No,Estadual,Rural,Yes,5.0,Norte,1,Amapá,BR16,Porto Grande,BR1600535,Yes
51119326-995a-3aa5-a7fe-eb7f89b9e41d,Brazil,government,16004140,ESC EST FLORENCA TORRES DE ARAUJO,0.6098,-51.7681,1.0,145,No,Estadual,Rural,Yes,5.0,Norte,1,Amapá,BR16,Porto Grande,BR1600535,Yes
84ab8cd2-02bc-3eac-92ee-c48fb0f89c61,Brazil,government,16004175,ESC EST KM 127,0.6695,-51.5878,1.0,20,No,Estadual,Rural,Yes,2.0,Norte,1,Amapá,BR16,Porto Grande,BR1600535,No
18337fff-77ea-3a89-9a4f-81c3520a863f,Brazil,government,16004183,ESC EST KM 132,0.6353,-51.6156,1.0,58,No,Estadual,Rural,No,0.0,Norte,1,Amapá,BR16,Porto Grande,BR1600535,Yes
5b380c4b-dbf4-3e90-b9ad-bf2cff92af11,Brazil,government,16004191,ESC EST FRANCISCO MANOEL DOS SANTOS,0.6211,-51.7038,1.0,49,No,Estadual,Rural,No,0.0,Norte,1,Amapá,BR16,Porto Grande,BR1600535,No
35ca1689-abf9-3d13-b369-ae9ca02977f4,Brazil,government,16004205,ESC MUL MARANHAO,0.6483,-51.4872,1.0,39,No,Municipal,Rural,No,0.0,Norte,1,Amapá,BR16,Porto Grande,BR1600535,No
a0f7384e-f1b4-355a-9232-0232a1e1c4c1,Brazil,government,16004213,ESC EST MATAPI I,0.6633,-51.4384,1.0,15,No,Estadual,Rural,No,0.0,Norte,1,Amapá,BR16,Porto Grande,BR1600535,No
9590862f-272c-306c-b7af-86af98b3e86b,Brazil,government,16004221,ESC EST MATAPI II,0.6058,-51.429,0.94,65,Yes,Estadual,Rural,Yes,2.0,Norte,1,Amapá,BR16,Porto Grande,BR1600535,Yes
9f037e27-0f06-3901-9f61-ec4c23d32171,Brazil,government,16004230,ESC EST PROF M,0.707,-51.4118,0.94,1069,Yes,Estadual,Urban,Yes,5.0,Norte,1,Amapá,BR16,Porto Grande,BR1600535,Yes
81ad6837-929d-3de8-9b73-12d838b0b97e,Brazil,government,16004248,ESC EST SAO FRANCISCO DE ASSIS,0.621,-51.7037,0.94,57,Yes,Estadual,Rural,Yes,5.0,Norte,1,Amapá,BR16,Porto Grande,BR1600535,Yes
9d8a6375-b725-326e-904f-523625745bfe,Brazil,government,16004256,ESC MUL DA LINHA C,0.6157,-51.5294,1.0,55,No,Municipal,Rural,No,0.0,Norte,1,Amapá,BR16,Porto Grande,BR1600535,No
8d82fb57-8011-351e-a6f3-3c51c862262f,Brazil,government,16004310,ESC EST DE TEMPO INTEGRAL PE JOAO PIAMARTA,0.3029,-51.0647,0.67,514,No,Estadual,Rural,Yes,5.0,Norte,1,Amapá,BR16,Macapá,BR1600303,Yes
4a740d32-9f08-361b-9452-2bf6a3b1dce3,Brazil,government,16004353,ESC EST EVERALDO DA S VASCONCELOS JR,-0.0301,-51.1777,1.0,716,No,Estadual,Urban,Yes,2.0,Norte,1,Amapá,BR16,Santana,BR1600600,Yes
ae7299f7-270d-3de2-afba-0e02efd84ef5,Brazil,government,16004361,ESC EST PROF DAVID MIRANDA DOS SANTOS,0.0127,-51.2106,1.0,178,No,Estadual,Rural,No,0.0,Norte,1,Amapá,BR16,Santana,BR1600600,No
026b1c34-c68b-394b-943a-604de56a4c70,Brazil,government,16004370,ESC EST PROF JOSE BARROSO TOSTES,-0.0416,-51.1767,1.0,1007,Yes,Estadual,Urban,Yes,2.0,Norte,1,Amapá,BR16,Santana,BR1600600,Yes
e3e25a6c-1a25-3901-9173-9fe35b32a925,Brazil,government,16004388,ESC EST ALBERTO SANTOS DUMONT,-0.0471,-51.1863,1.0,652,No,Estadual,Rural,Yes,5.0,Norte,1,Amapá,BR16,Santana,BR1600600,Yes
4166327b-68ca-36d6-b308-fd8736319334,Brazil,government,16004396,ESC EST FRANCISCO DE OLIVEIRA FILHO,-0.0679,-51.2581,1.0,276,No,Estadual,Rural,Yes,2.0,Norte,1,Amapá,BR16,Santana,BR1600600,Yes
2f167e76-2799-3a6e-b1a8-c6d642921dd1,Brazil,government,16004400,ESC EST ALMIRANTE BARROSO,-0.0485,-51.1777,1.0,996,Yes,Estadual,Urban,Yes,2.0,Norte,1,Amapá,BR16,Santana,BR1600600,Yes
e33a7922-6169-344e-bcc3-13255e60fcfe,Brazil,government,16004418,ESC EST AUGUSTO ANTUNES,-0.0437,-51.1648,1.0,354,Yes,Estadual,Urban,Yes,5.0,Norte,1,Amapá,BR16,Santana,BR1600600,Yes
9c32da83-0b49-3aac-b322-a5f0f1d671c7,Brazil,government,16004426,ESC EST BELMIRO MACEDO MEDINA,0.0806,-51.4233,0.67,236,No,Estadual,Rural,No,0.0,Norte,1,Amapá,BR16,Santana,BR1600600,No
a6bd4f4d-33b6-300b-b4d7-903f509a7160,Brazil,government,16004442,ESC EST FOZ DO RIO MATAPI,-0.0482,-51.1938,1.0,280,Yes,Estadual,Rural,Yes,2.0,Norte,1,Amapá,BR16,Santana,BR1600600,Yes
30140942-f24b-3e83-9847-8dce3d03bc3f,Brazil,government,16004450,ESC EST FOZ DO RIO PIRATIVA,0.0385,-51.2512,1.0,64,No,Estadual,Rural,No,0.0,Norte,1,Amapá,BR16,Santana,BR1600600,No
4579d7c0-c52b-31d9-8477-e4e106721703,Brazil,government,16004469,ESC EST OSVALDINA FERREIRA DA SILVA,-0.0668,-51.1729,1.0,571,No,Estadual,Rural,Yes,2.0,Norte,1,Amapá,BR16,Santana,BR1600600,Yes
9dfbe33e-7f79-397f-bb14-21f2ad9b5532,Brazil,government,16004485,ESC EST PE SIMAO CORRIDORI,-0.0536,-51.164,0.94,533,No,Estadual,Urban,Yes,2.0,Norte,1,Amapá,BR16,Santana,BR1600600,Yes
04c277c0-dea1-3828-ae85-c2084b333421,Brazil,government,16004493,ESC EST PROF AFONSO ARINOS DE MELO FRANCO,-0.0552,-51.1784,1.0,1121,Yes,Estadual,Urban,Yes,5.0,Norte,1,Amapá,BR16,Santana,BR1600600,Yes
ce59fb2e-26af-36a0-9edf-37f31af9a854,Brazil,government,16004507,ESC EST PROF ELIZABETH PICANCO ESTEVES,-0.0466,-51.1723,1.0,345,Yes,Estadual,Urban,Yes,5.0,Norte,1,Amapá,BR16,Santana,BR1600600,Yes
e64a730b-6e2e-3a60-9024-480596d4aff1,Brazil,government,16004515,ESC EST PROF FRANCISCO W LOBATO LIMA,-0.0365,-51.1659,1.0,1106,Yes,Estadual,Urban,Yes,5.0,Norte,1,Amapá,BR16,Santana,BR1600600,Yes
56736473-0782-3bde-916d-bd02788bb0e7,Brazil,government,16004523,ESC EST PROF JOANIRA DEL CASTILLO,-0.0407,-51.1662,1.0,1013,Yes,Estadual,Urban,Yes,2.0,Norte,1,Amapá,BR16,Santana,BR1600600,Yes
6eeb2b49-3539-3698-b689-3462e44e6fcb,Brazil,government,16004531,ESC EST PROF JOSE RIBAMAR PESTANA,-0.0465,-51.1603,1.0,1109,No,Estadual,Urban,Yes,2.0,Norte,1,Amapá,BR16,Santana,BR1600600,Yes
8bcf6a98-a8e6-377c-9da5-dbd768effe98,Brazil,government,16004540,ESC EST RAIMUNDA BARRETO,0.0806,-51.4233,0.67,16,No,Estadual,Rural,No,0.0,Norte,1,Amapá,BR16,Santana,BR1600600,No
26b41545-a927-36b8-809a-d17f5cdc373a,Brazil,government,16004566,ESC MUL AMAZONAS,-0.0432,-51.1739,1.0,868,No,Municipal,Urban,No,0.0,Norte,1,Amapá,BR16,Santana,BR1600600,No
014376fe-21c3-35c0-9974-2fd1b322a8cd,Brazil,government,16004574,ESC MUL CAFEZAL,0.2929,-51.4847,0.67,87,No,Municipal,Rural,No,0.0,Norte,1,Amapá,BR16,Santana,BR1600600,No
4bbf6155-26be-3273-bed7-742872773aef,Brazil,government,16004582,ESC MUL GOIAS,0.0199,-51.1728,1.0,515,No,Municipal,Rural,Yes,5.0,Norte,1,Amapá,BR16,Macapá,BR1600303,Yes
493394e9-1818-336f-ada1-c71679c623ec,Brazil,government,16004590,ESC MUL PE ANGELO BIRAGHI,-0.0395,-51.1675,1.0,799,No,Municipal,Urban,No,0.0,Norte,1,Amapá,BR16,Santana,BR1600600,No
7654fe71-7cd1-3a2d-826a-09474f026cfe,Brazil,government,16004604,ESC MUL PIAUI,-0.0497,-51.1449,1.0,888,No,Municipal,Urban,No,0.0,Norte,1,Amapá,BR16,Santana,BR1600600,No
f1dd9d2d-b1f7-3e08-a328-e891b2557f35,Brazil,government,16004612,ESC MUL PIRATIVA,0.0603,-51.3,0.83,122,No,Municipal,Rural,No,0.0,Norte,1,Amapá,BR16,Santana,BR1600600,No
52b9ff53-1d08-3286-a5a3-363a0375d0f1,Brazil,government,16004620,EMEB FOZ RIO VILA NOVA,-0.0762,-51.2262,1.0,119,No,Municipal,Rural,No,0.0,Norte,1,Amapá,BR16,Santana,BR1600600,No
b89e846e-b595-3c77-90d7-596706b0b988,Brazil,government,16004647,ESC MUL SAO JOSE,0.2929,-51.4847,0.67,47,No,Municipal,Rural,No,0.0,Norte,1,Amapá,BR16,Santana,BR1600600,No
ef81bf68-b79a-37a3-9a37-790707630179,Brazil,government,16004744,ESC EST ANTONIO JANUARIO PEREIRA,-0.0211,-51.1694,1.0,281,Yes,Estadual,Urban,Yes,5.0,Norte,1,Amapá,BR16,Santana,BR1600600,Yes
2b86fa31-3de4-39bd-8d73-11db75bfc771,Brazil,government,16004752,ESC EST MARIA CATARINA DANTAS TIBURCIO,-0.0557,-51.1645,1.0,338,No,Estadual,Urban,Yes,5.0,Norte,1,Amapá,BR16,Santana,BR1600600,Yes
44a80988-2e2f-35f8-b5dd-605533296b2c,Brazil,government,16004760,JD INF VITORIA REGIA,-0.0414,-51.1697,1.0,246,No,Estadual,Urban,Yes,5.0,Norte,1,Amapá,BR16,Santana,BR1600600,Yes
b99357dc-5972-3ae1-a1c0-eab3e3d0ae82,Brazil,government,16004787,ESC EST CONCEICAO DO MARUANUM I,0.0806,-51.4233,0.67,17,No,Estadual,Rural,Yes,5.0,Norte,1,Amapá,BR16,Santana,BR1600600,No
2546a847-d663-3597-ac96-637f72b93e1d,Brazil,government,16004795,ESC MUL PIASSACA,0.2929,-51.4847,0.67,83,No,Municipal,Rural,No,0.0,Norte,1,Amapá,BR16,Santana,BR1600600,No
113f243d-08da-3ee2-9be7-415a7a306333,Brazil,government,16004833,ESC INDIGENA EST IMAKUANA AMAJAREHPO,1.0966,-53.3059,0.67,138,No,Estadual,Rural,No,0.0,Norte,1,Amapá,BR16,Laranjal do Jari,BR1600279,No
881ca4b5-f236-3916-89aa-15b3a469ea69,Brazil,government,16004841,ESC MUL SANTA LUCIA,-0.8208,-52.5008,1.0,648,No,Municipal,Urban,No,0.0,Norte,1,Amapá,BR16,Laranjal do Jari,BR1600279,No
8d46166e-82d2-3310-ac2f-865b34b34070,Brazil,government,16004868,ESC INDIGENA EST MATAWARE,1.0966,-53.3059,0.67,64,No,Estadual,Rural,No,0.0,Norte,1,Amapá,BR16,Laranjal do Jari,BR1600279,No
9663bb61-6ad9-3d91-9a16-90e8c4044814,Brazil,government,16004876,ESC INDIGENA EST PARU DE LESTE,1.0966,-53.3059,0.67,56,No,Estadual,Rural,No,0.0,Norte,1,Amapá,BR16,Laranjal do Jari,BR1600279,No
e16a8621-0179-3225-9bed-36cf19988d7a,Brazil,government,16004884,ESC EST PROF MARIA DE NAZARE RODRIGUES DA SILVA,-0.8443,-52.516,0.94,566,No,Estadual,Urban,No,0.0,Norte,1,Amapá,BR16,Laranjal do Jari,BR1600279,No
f270f63c-a5ca-3e05-b4ee-0a7b9d6600d1,Brazil,government,16004892,ESC INDIGENA EST MAXIPURIMO,1.0966,-53.3059,0.67,48,No,Estadual,Rural,No,0.0,Norte,1,Amapá,BR16,Laranjal do Jari,BR1600279,No
baae2949-319a-3322-bdad-e224d424e625,Brazil,government,16004906,ESC EST MINEKO HAYASHIDA,-0.8381,-52.5174,1.0,1067,Yes,Estadual,Urban,Yes,2.0,Norte,1,Amapá,BR16,Laranjal do Jari,BR1600279,Yes
5bd298f9-67be-3c4f-93cd-0cf618f1c94d,Brazil,government,16004914,ESC INDIGENA EST PURURE,1.0966,-53.3059,0.67,40,No,Estadual,Rural,No,0.0,Norte,1,Amapá,BR16,Laranjal do Jari,BR1600279,No
b40cd35a-17aa-3588-aa11-1c6612299b29,Brazil,government,16004930,ESC EST AGUA BRANCA DO CAJARI,-0.5505,-52.1815,1.0,165,No,Estadual,Rural,No,0.0,Norte,1,Amapá,BR16,Laranjal do Jari,BR1600279,No
77751a87-7aa3-3cb3-a2bd-8d391b410bc2,Brazil,government,16004949,ESC EST GAL EMILIO GARRASTAZU MEDICI,-0.8493,-52.5419,1.0,189,Yes,Estadual,Urban,No,0.0,Norte,1,Amapá,BR16,Laranjal do Jari,BR1600279,No
82283ec4-746b-3538-9de9-51620d28a09e,Brazil,government,16004957,ESC EST IRANDYR PONTES NUNES,-0.8523,-52.5353,1.0,416,No,Estadual,Urban,Yes,5.0,Norte,1,Amapá,BR16,Laranjal do Jari,BR1600279,Yes
f3d345f1-8f1b-38b2-84ba-66b00246ec89,Brazil,government,16004965,ESC EST ITABOCA DO CAJARI,-0.5485,-52.0771,1.0,27,No,Estadual,Rural,No,0.0,Norte,1,Amapá,BR16,Laranjal do Jari,BR1600279,No
c6338af6-cfcf-3a53-9259-fdb248c67d8e,Brazil,government,16004973,ESC EST JARILANDIA,-0.9979,-52.0612,0.67,144,Yes,Estadual,Rural,No,0.0,Norte,1,Amapá,BR16,Vitória do Jari,BR1600808,Yes
3b0577d1-c905-3b73-8c4a-dcda7cb00cd6,Brazil,government,16004981,ESC EST MUNGUBA DO JARI,-0.9293,-52.4278,1.0,1862,Yes,Estadual,Urban,Yes,2.0,Norte,1,Amapá,BR16,Vitória do Jari,BR1600808,Yes
60daf771-a51e-3003-8a20-f507edca4cf9,Brazil,government,16004990,ESC EST PADARIA,-0.7095,-52.4961,1.0,25,No,Estadual,Rural,No,0.0,Norte,1,Amapá,BR16,Laranjal do Jari,BR1600279,No
f3145f93-a233-3ca2-aee0-c097a1471c82,Brazil,government,16005007,ESC EST PROF SONIA HENRIQUES BARRETO,-0.8542,-52.5387,1.0,948,Yes,Estadual,Urban,Yes,5.0,Norte,1,Amapá,BR16,Laranjal do Jari,BR1600279,Yes
34924a9c-8620-39d5-b8dc-460a9dc66d58,Brazil,government,16005015,ESC EST SANTO ANTONIO DA CACHOEIRA,-0.6519,-52.5073,1.0,8,No,Estadual,Rural,No,0.0,Norte,1,Amapá,BR16,Laranjal do Jari,BR1600279,No
212d1753-0df8-37e5-8d51-5514613c4b81,Brazil,government,16005023,ESC EST TEOTONIO BRANDAO VILELA,-0.9198,-52.4183,1.0,449,Yes,Estadual,Urban,Yes,2.0,Norte,1,Amapá,BR16,Vitória do Jari,BR1600808,Yes
3f28914d-156c-3268-b027-a0fe52552c24,Brazil,government,16005058,ESC MUL SANTA RITA DO CAJARI,-0.8888,-51.8687,1.0,21,No,Municipal,Rural,No,0.0,Norte,1,Amapá,BR16,Vitória do Jari,BR1600808,No
29ad0ffa-fc7f-30e0-a3d2-45d4e9750fa9,Brazil,government,16005066,ESC MUL SANTAREM DO CAJARI,-0.5846,-52.1236,1.0,20,No,Municipal,Rural,No,0.0,Norte,1,Amapá,BR16,Laranjal do Jari,BR1600279,No
279be248-8e08-3eba-a758-93a022e3c8db,Brazil,government,16005074,ESC EST MARINHO DO CAJARI,-0.5786,-52.2245,1.0,8,No,Estadual,Rural,No,0.0,Norte,1,Amapá,BR16,Laranjal do Jari,BR1600279,No
0d4e6288-5378-3afd-b8f2-f3dab1e131ed,Brazil,government,16005090,ESC MUL KAIZER MENEZES NASCIMENTO,-0.8395,-52.5228,1.0,39,Yes,Municipal,Rural,No,0.0,Norte,1,Amapá,BR16,Laranjal do Jari,BR1600279,No
467403ab-feb2-37c2-8248-8f37878dc384,Brazil,government,16005112,ESC MUL DONA MARIA DO CARMO,-0.7845,-51.9432,1.0,33,No,Municipal,Rural,No,0.0,Norte,1,Amapá,BR16,Laranjal do Jari,BR1600279,No
000717ea-dadb-3ffe-bf76-8658af737935,Brazil,government,16005120,ESC MUL CRISTO REDENTOR,1.0966,-53.3059,0.67,73,No,Municipal,Rural,No,0.0,Norte,1,Amapá,BR16,Laranjal do Jari,BR1600279,No
b7a5559f-ee8c-3363-8902-225e07e6416d,Brazil,government,16005139,ESC MUL MATAUAU,-1.0834,-51.7669,1.0,0,,Municipal,Rural,,,Norte,1,Amapá,BR16,Vitória do Jari,BR1600808,No
9e90ab33-4c81-3253-a167-6e6341a09486,Brazil,government,16005155,ESC MUL MARAJO,-1.1442,-52.1387,1.0,111,No,Municipal,Rural,No,0.0,Norte,1,Amapá,BR16,Vitória do Jari,BR1600808,No
2044b01e-6969-3ac7-bd8f-a2af3a9dc8d1,Brazil,government,16005163,ESC MUL N S SANTANA,-0.8891,-51.8874,1.0,0,,Municipal,Rural,,,Norte,1,Amapá,BR16,Vitória do Jari,BR1600808,No
f4d9b361-14c7-30b8-9efa-538751e3272e,Brazil,government,16005180,ESC MUL SAMAUMA,-0.8402,-52.5371,1.0,41,No,Municipal,Urban,No,0.0,Norte,1,Amapá,BR16,Laranjal do Jari,BR1600279,No
714d8727-1502-37ed-9462-d8232bc47ed1,Brazil,government,16005198,ESC MUL SAO SEBASTIAO DO CAJARI,-0.8773,-51.9311,1.0,24,No,Municipal,Rural,No,0.0,Norte,1,Amapá,BR16,Vitória do Jari,BR1600808,No
1bf85b46-ef34-3ba8-a99e-70c75833082c,Brazil,government,16005201,ESC MUL SAO FRANCISCO DO IRATAPURU,-0.5641,-52.581,0.94,122,No,Municipal,Rural,No,0.0,Norte,1,Amapá,BR16,Laranjal do Jari,BR1600279,No
c9f60e13-59e3-37e0-9884-0eb65d3870d7,Brazil,government,16005210,ESC MUL JOAO DIAS DE SOUZA,-0.8684,-51.8213,1.0,57,No,Municipal,Rural,No,0.0,Norte,1,Amapá,BR16,Vitória do Jari,BR1600808,No
e45689c8-1fdf-3750-ad63-b46e85f6db9d,Brazil,government,16005236,ESC MUL SAO TOME DO CAJARI,-0.8433,-51.7278,1.0,0,,Municipal,Rural,,,Norte,1,Amapá,BR16,Vitória do Jari,BR1600808,No
d5097628-e302-3991-9f86-ea283a172542,Brazil,government,16005260,ESC MUL VINHA DE LUZ,-0.8523,-52.5351,1.0,372,No,Municipal,Urban,No,0.0,Norte,1,Amapá,BR16,Laranjal do Jari,BR1600279,No
532fca1b-6fbe-32ac-87c8-cf063c9337fa,Brazil,government,16005279,ESC INDIGENA EST PARUTAIKE,1.0966,-53.3059,0.67,65,No,Estadual,Rural,No,0.0,Norte,1,Amapá,BR16,Laranjal do Jari,BR1600279,No
67a5e3ba-dec5-395d-a936-10993894fa33,Brazil,government,16005333,ESC EST DR MURILO BRAGA,-0.1149,-51.2855,1.0,387,Yes,Estadual,Urban,Yes,5.0,Norte,1,Amapá,BR16,Mazagão,BR1600402,Yes
8f9aea95-1d0e-3d19-89e0-d2f57885874d,Brazil,government,16005341,ESC EST D PEDRO I,-0.1162,-51.2857,1.0,1318,Yes,Estadual,Urban,Yes,5.0,Norte,1,Amapá,BR16,Mazagão,BR1600402,Yes
c68e5b40-5aaa-3b53-b209-dd68f257459f,Brazil,government,16005368,ESC MUL FOZ DO RIO TAMBAQUI,-0.712,-51.6915,0.94,15,No,Municipal,Rural,No,0.0,Norte,1,Amapá,BR16,Mazagão,BR1600402,No
ddc0bff4-243d-3125-b1d1-6aab0f6f58ad,Brazil,government,16005376,ESC EST GRAZIELA REIS DE SOUZA,-0.1238,-51.381,0.94,26,No,Estadual,Rural,No,0.0,Norte,1,Amapá,BR16,Mazagão,BR1600402,No
b2022b1c-2cec-3ddd-98c1-9c9451187414,Brazil,government,16005384,ESC EST JOSE HILARIO,-0.0089,-51.6692,1.0,52,No,Estadual,Rural,No,0.0,Norte,1,Amapá,BR16,Mazagão,BR1600402,No
43df1666-314a-363f-97bd-422e1c37ac5a,Brazil,government,16005392,ESC EST MANOEL QUEIROZ BENJAMIM,-0.1234,-51.2835,1.0,569,No,Estadual,Urban,Yes,2.0,Norte,1,Amapá,BR16,Mazagão,BR1600402,Yes
bdc09123-27e2-32e2-9d9d-b54c4b83e617,Brazil,government,16005406,ESC EST PANCADA DO CAMAIPI,0.2538,-51.9066,0.67,14,No,Estadual,Rural,No,0.0,Norte,1,Amapá,BR16,Mazagão,BR1600402,No
a409d239-2ff9-32c0-9549-151d7cb79154,Brazil,government,16005414,ESC EST PROF ANTONIA SILVA SANTOS,-0.2173,-51.4342,1.0,246,No,Estadual,Rural,Yes,2.0,Norte,1,Amapá,BR16,Mazagão,BR1600402,Yes
92c7af2e-01c5-3d93-923a-fee59801ef1a,Brazil,government,16005422,ESC EST RIO NAVIO,-0.4001,-51.4205,1.0,81,No,Estadual,Rural,No,0.0,Norte,1,Amapá,BR16,Mazagão,BR1600402,No
9baa6270-32cd-32a9-9a9b-3e8aa50f206d,Brazil,government,16005430,ESC EST PRES TANCREDO NEVES,-0.0888,-51.2295,1.0,47,No,Estadual,Rural,Yes,2.0,Norte,1,Amapá,BR16,Mazagão,BR1600402,No
9ea2a01c-0b59-3e29-b491-de8b2ee4c60e,Brazil,government,16005449,ESC MUL CURUMURI,0.2425,-51.6662,1.0,16,No,Municipal,Rural,No,0.0,Norte,1,Amapá,BR16,Mazagão,BR1600402,No
9b9edf58-45da-3b30-b615-5c06bd170735,Brazil,government,16005457,ESC MUL RIO ARIRAMBA,-0.5985,-51.6284,1.0,149,No,Municipal,Rural,No,0.0,Norte,1,Amapá,BR16,Mazagão,BR1600402,No
4dbbf241-1991-3bc5-961f-c55a5d8adb74,Brazil,government,16005473,ESC MUL BARRO ALTO,-0.2972,-51.5943,1.0,19,No,Municipal,Rural,No,0.0,Norte,1,Amapá,BR16,Mazagão,BR1600402,No
e502c5d8-7d46-3909-b7fe-04553b5e5dd2,Brazil,government,16005511,ESC MUL CONCEICAO DO MARACA,-0.2939,-51.6928,1.0,20,No,Municipal,Rural,No,0.0,Norte,1,Amapá,BR16,Mazagão,BR1600402,No
b903a840-93a2-3bb5-9e56-ae160c8f3780,Brazil,government,16005520,ESC MUL RIO CURUCA,-0.5043,-51.4875,1.0,60,No,Municipal,Rural,No,0.0,Norte,1,Amapá,BR16,Mazagão,BR1600402,No
711caa7e-4009-3873-b8d8-f19f4138889e,Brazil,government,16005538,ESC MUL DOMINGOS VALENTE BARRETO,-0.1069,-51.2869,1.0,245,No,Municipal,Urban,No,0.0,Norte,1,Amapá,BR16,Mazagão,BR1600402,No
8cdb02b7-61f0-3a03-a047-584835d59525,Brazil,government,16005562,ESC MUL FOZ DO RIO ARIRAMBA,0.2538,-51.9066,1.0,0,,Municipal,Rural,,,Norte,1,Amapá,BR16,Mazagão,BR1600402,No
0f1ecf41-5d89-3e09-bae3-3817e5dbfcce,Brazil,government,16005570,ESC MUL IGARAPE DO LAGO DO MARACA,-0.3036,-51.7377,1.0,22,No,Municipal,Rural,No,0.0,Norte,1,Amapá,BR16,Mazagão,BR1600402,No
e4e98e3d-8b64-3fde-8016-98356051ea4d,Brazil,government,16005589,ESC MUL JANARY GENTIL NUNES I,-0.0838,-51.3264,1.0,0,,Municipal,Rural,,,Norte,1,Amapá,BR16,Mazagão,BR1600402,No
62b748a5-acdc-3ccb-97a1-8e8546e9b2e2,Brazil,government,16005619,ESC MUL POCAO DO RIO PRETO,-0.3347,-51.4625,1.0,26,No,Municipal,Rural,No,0.0,Norte,1,Amapá,BR16,Mazagão,BR1600402,No
a05064e4-5cac-3cb3-8d34-b69f8a1e0bf0,Brazil,government,16005627,ESC MUL RAIMUNDO ANTONIO VIEIRA,-0.4497,-51.46,0.89,41,No,Municipal,Rural,No,0.0,Norte,1,Amapá,BR16,Mazagão,BR1600402,No
ecb0aa57-b2d9-3271-a5d4-9ee1786e451b,Brazil,government,16005660,ESC MUL SAO PEDRO DO CAMAIPI,0.1729,-51.6291,1.0,34,No,Municipal,Rural,No,0.0,Norte,1,Amapá,BR16,Mazagão,BR1600402,No
fd8f8874-8c9a-394c-8916-423830d82e54,Brazil,government,16005678,ESC MUL SANTA LUZIA DO MARACA,-0.4201,-51.5394,1.0,9,No,Municipal,Rural,No,0.0,Norte,1,Amapá,BR16,Mazagão,BR1600402,No
6db8c115-a16e-34d0-a4a0-bab1dc8443fc,Brazil,government,16005686,ESC MUL SANTA MARIA DO FURO DO MARACA,-0.4989,-51.5727,1.0,75,No,Municipal,Rural,No,0.0,Norte,1,Amapá,BR16,Mazagão,BR1600402,No
16b8335a-ef59-3ffa-9953-a035673833dc,Brazil,government,16005694,ESC MUL SANTA MARIA DO MARACA MIRIM,-0.1192,-51.2837,1.0,15,No,Municipal,Rural,No,0.0,Norte,1,Amapá,BR16,Mazagão,BR1600402,No
43ca4f00-607f-34b7-a627-debe600dbca8,Brazil,government,16005708,ESC MUL SANTO ANDRE DO LAGO DO AJURUXI,-0.4991,-51.8124,1.0,53,No,Municipal,Rural,No,0.0,Norte,1,Amapá,BR16,Mazagão,BR1600402,No
da7e0dbd-9d44-3d36-87d6-4500bfb1b6e2,Brazil,government,16005716,ESC MUL SANTO ANTONIO DO AJURUXI,-0.546,-51.5898,0.94,66,No,Municipal,Rural,No,0.0,Norte,1,Amapá,BR16,Mazagão,BR1600402,No
021040b3-94eb-3226-a499-4d15cbd47616,Brazil,government,16005732,ESC MUL VARADOR DO MARACA,-0.1148,-51.2837,1.0,15,No,Municipal,Rural,No,0.0,Norte,1,Amapá,BR16,Mazagão,BR1600402,No
349572e8-a863-33b7-9345-32b12cd12217,Brazil,government,16005740,ESC MUL VILHENA ALVES,0.1539,-51.5772,1.0,26,No,Municipal,Rural,No,0.0,Norte,1,Amapá,BR16,Mazagão,BR1600402,No
a87effa6-e1a1-3522-a4fb-ee1a344da83a,Brazil,government,16005767,JARDIM DE INFANCIA BRANCA DE NEVE,-0.115,-51.2893,0.94,192,No,Municipal,Urban,Yes,2.0,Norte,1,Amapá,BR16,Mazagão,BR1600402,Yes
6e387750-0426-3f98-aaa7-cb3e70e26100,Brazil,government,16005775,PRE ESC TIA RAIMUNDA PUREZA,-0.1165,-51.2865,1.0,229,No,Municipal,Urban,No,0.0,Norte,1,Amapá,BR16,Mazagão,BR1600402,No
b5a1bba8-4076-31c1-809e-b8847b354231,Brazil,government,16005783,ESC EST FAGUNDES VARELA,-0.1844,-51.3552,1.0,254,No,Estadual,Rural,Yes,2.0,Norte,1,Amapá,BR16,Mazagão,BR1600402,Yes
bbf86f7a-f9b9-3c91-9b0d-4dccf3dc99d7,Brazil,government,16005805,ESC MUL BAIXO MUTUACA,-0.2509,-51.3676,1.0,52,No,Municipal,Rural,No,0.0,Norte,1,Amapá,BR16,Mazagão,BR1600402,No
c2ef5d74-5174-31d5-b07f-37acc5c12c32,Brazil,government,16005821,ESC EST LARANJAL DO MARACA,0.2538,-51.9066,1.0,0,,Estadual,Rural,,,Norte,1,Amapá,BR16,Mazagão,BR1600402,No
b35d0ca4-4e59-341d-bf15-68b03b255da1,Brazil,government,16005830,ESC MUL MARUIM DO MARACA,-0.1348,-51.7894,1.0,21,No,Municipal,Rural,No,0.0,Norte,1,Amapá,BR16,Mazagão,BR1600402,No
1cadde80-ec79-3806-bbde-d78c963ac591,Brazil,government,16005848,ESC EST PIONEIRO,-0.0881,-51.5361,1.0,109,No,Estadual,Rural,No,0.0,Norte,1,Amapá,BR16,Mazagão,BR1600402,No
d1b84562-fc65-39e4-a6a5-1fd2509a90a0,Brazil,government,16005856,ESC EST EVILASIO PEDRO DE L FERREIRA,-0.1796,-51.7342,1.0,418,No,Estadual,Rural,Yes,2.0,Norte,1,Amapá,BR16,Mazagão,BR1600402,Yes
05085086-f02f-3282-96f8-0c559446953c,Brazil,government,16005864,ESC MUL FRANCISCO MANOEL DA SILVA,-0.294,-51.6589,0.94,22,No,Municipal,Rural,No,0.0,Norte,1,Amapá,BR16,Mazagão,BR1600402,No
3d3e2320-8931-3899-a74a-327ab0dacc45,Brazil,government,16005872,ESC EST SANTA CLARA DO CAJARI,-0.4619,-52.0822,1.0,25,No,Estadual,Rural,No,0.0,Norte,1,Amapá,BR16,Laranjal do Jari,BR1600279,No
51b42a6d-4bd1-30b1-8346-2855245e2304,Brazil,government,16005880,ESC EST AMILAR ARTHUR BRENHA,-0.1071,-51.6109,1.0,34,No,Estadual,Rural,No,0.0,Norte,1,Amapá,BR16,Mazagão,BR1600402,No
7831ca34-0380-3a67-94a4-6dd4014a2cef,Brazil,government,16005899,ESC EST ANTONICO DO RIO PRETO,0.0469,-51.7041,1.0,21,No,Estadual,Rural,No,0.0,Norte,1,Amapá,BR16,Mazagão,BR1600402,No
02401434-a646-33a2-bee4-672a3fbd3a8d,Brazil,government,16005902,ESC EST CENTRAL DO MARACA,-0.1834,-51.6537,1.0,24,No,Estadual,Rural,Yes,5.0,Norte,1,Amapá,BR16,Mazagão,BR1600402,Yes
f6aec429-4585-3e12-a77f-aed19bdc7f95,Brazil,government,16005945,ESC EST OSMUNDO VALENTE BARRETO,0.2538,-51.9066,0.67,349,No,Estadual,Rural,No,0.0,Norte,1,Amapá,BR16,Mazagão,BR1600402,No
8fe67300-9166-3ae6-a065-02f59f8fc83a,Brazil,government,16005970,ESC EST DAMASO DE JESUS DO NASCIMENTO NETO,-0.175,-51.411,0.89,10,No,Estadual,Rural,No,0.0,Norte,1,Amapá,BR16,Mazagão,BR1600402,No
546a7197-2daa-3c87-9f6a-d938365d335a,Brazil,government,16005996,ESC EST SAO MIGUEL DO MARACA,0.2538,-51.9066,1.0,0,,Estadual,Rural,,,Norte,1,Amapá,BR16,Mazagão,BR1600402,No
5bfba40e-64ea-351d-865c-8cf2cf44d127,Brazil,government,16006003,ESC MUL TERRA ALTA DO RIO PRETO,0.2538,-51.9066,1.0,0,,Municipal,Rural,,,Norte,1,Amapá,BR16,Mazagão,BR1600402,No
5c615791-e1aa-3316-9725-2c50d7bdb65e,Brazil,government,16006011,ESC MUL FOZ DO IGARAPE DO BREU,-0.1112,-51.6585,1.0,15,No,Municipal,Rural,No,0.0,Norte,1,Amapá,BR16,Mazagão,BR1600402,No
03e7d67f-2e4a-3fa6-af0f-a016a839a2e1,Brazil,government,16006062,ESC MUL JARBAS AMORIM CAVALCANTE,-0.1147,-51.2836,1.0,0,,Municipal,Rural,,,Norte,1,Amapá,BR16,Mazagão,BR1600402,No
17dcfc1f-09ff-35d2-bad9-c9638b40ff18,Brazil,government,16006070,ESC EST LEANDRO PLACIDO FERREIRA,-0.2505,-51.3698,1.0,96,No,Estadual,Rural,Yes,2.0,Norte,1,Amapá,BR16,Mazagão,BR1600402,Yes
7769bf26-7264-3dfa-9f32-eab0444e3c77,Brazil,government,16006089,ESC MUL PACU DO MARACA,-0.0191,-51.8911,1.0,27,No,Municipal,Rural,No,0.0,Norte,1,Amapá,BR16,Mazagão,BR1600402,No
af159182-baf7-32e3-9aa8-41dbda41175a,Brazil,government,16006097,ESC MUL RAIMUNDO JACARANDA,-0.2997,-51.4735,1.0,30,No,Municipal,Rural,No,0.0,Norte,1,Amapá,BR16,Mazagão,BR1600402,No
2ca74541-6d20-3626-a78e-ec59697bd225,Brazil,government,16006100,ESC MUL ROQUE DE SOUZA PENAFORT,-0.5074,-51.7819,1.0,0,,Municipal,Rural,,,Norte,1,Amapá,BR16,Mazagão,BR1600402,No
07d95934-0b50-3f0d-abe6-2bb7990a709d,Brazil,government,16006127,ESC MUL SAO JOSE DO AJURUXI,-0.4916,-51.7191,1.0,85,No,Municipal,Rural,No,0.0,Norte,1,Amapá,BR16,Mazagão,BR1600402,No
5665b16e-95b4-3322-89d9-9427c47241a6,Brazil,government,16006135,ESC MUL SAO JOSE DO MARACA,-0.4462,-51.4874,1.0,23,No,Municipal,Rural,No,0.0,Norte,1,Amapá,BR16,Mazagão,BR1600402,No
ae69e767-ded0-35c6-a34c-7a65b5f37d75,Brazil,government,16006143,ESC MUL RIO URUBUENO,-0.2316,-51.3208,1.0,26,No,Municipal,Rural,No,0.0,Norte,1,Amapá,BR16,Mazagão,BR1600402,No
3c089d7e-17ad-3bd0-8006-606ae60c5737,Brazil,government,16006160,ESC MUL PE FULVIO GIULLIANO,-0.019,-51.1681,0.94,350,No,Municipal,Urban,No,0.0,Norte,1,Amapá,BR16,Santana,BR1600600,No
1f7d2c58-80c1-3741-8445-ceefe8bdc9f2,Brazil,government,16006178,ESC EST PROF WALDECY CORREA FERREIRA,-0.0409,-51.1587,1.0,417,Yes,Estadual,Urban,Yes,5.0,Norte,1,Amapá,BR16,Santana,BR1600600,Yes
3cda57ab-6ac7-38e5-b156-ff9f7e9c3ffb,Brazil,government,16006186,CENTRO EDUC INF SEMENTINHA,2.5014,-50.9567,1.0,121,No,Municipal,Urban,No,0.0,Norte,1,Amapá,BR16,Calçoene,BR1600204,No
d0135be7-5500-3008-b56a-ea051af4f12c,Brazil,government,16006194,ESC MUL EXPEDICIONARIO WILSON MALCHER,0.0062,-51.0685,1.0,948,No,Municipal,Urban,No,0.0,Norte,1,Amapá,BR16,Macapá,BR1600303,No
e5b72c1e-d90f-372c-8cc8-cb071dc87668,Brazil,government,16006208,ESC MUL SAO JOAQUIM DO RIO PEDREIRA,0.3395,-50.8737,1.0,39,No,Municipal,Rural,Yes,5.0,Norte,1,Amapá,BR16,Macapá,BR1600303,No
fa078ecf-4a42-3c25-aa34-3425a5de9803,Brazil,government,16006216,ESC EST CACHOEIRA DO RIO PEDREIRA,0.3029,-51.0647,0.67,118,No,Estadual,Rural,No,0.0,Norte,1,Amapá,BR16,Macapá,BR1600303,No
19bfeb0e-0d21-3625-93dd-d97494f80020,Brazil,government,16006224,ESC EST FILADELFIA DO IGARAPE GRANDE,1.1095,-50.0369,1.0,127,No,Estadual,Rural,No,0.0,Norte,1,Amapá,BR16,Macapá,BR1600303,No
86185346-eced-3ba4-a252-02e6f9f6b097,Brazil,government,16006232,ESC EST CIRILO PANTOJA,0.3874,-50.8809,1.0,83,No,Estadual,Rural,No,0.0,Norte,1,Amapá,BR16,Macapá,BR1600303,No
db2ea5d7-d23c-3e58-a0b5-a294ea9c78db,Brazil,government,16006240,ESC EST PROF ANTONIO CASTRO MONTEIRO,-0.002,-51.097,0.89,1024,Yes,Estadual,Urban,Yes,5.0,Norte,1,Amapá,BR16,Macapá,BR1600303,Yes
bd05359e-3bd1-306c-89c3-b3866b72ed86,Brazil,government,16006259,ESC EST MANOEL MENDES BARBOSA,0.8513,-50.0569,1.0,12,No,Estadual,Rural,No,0.0,Norte,1,Amapá,BR16,Macapá,BR1600303,No
e4e9608c-008e-3e77-b3df-f1eb0bffc19c,Brazil,government,16006267,ESC EST IGARAPE DO CARNEIRO,0.8706,-50.1402,1.0,65,No,Estadual,Rural,No,0.0,Norte,1,Amapá,BR16,Macapá,BR1600303,No
da25fd74-b43f-380d-87ec-52f91eb5a913,Brazil,government,16006275,ESC MUL QUILOMBOLA VELHO CHICO,0.1236,-51.1137,1.0,278,Yes,Municipal,Rural,Yes,5.0,Norte,1,Amapá,BR16,Macapá,BR1600303,No
92268d88-10af-385b-8c52-bdae9be786b7,Brazil,government,16006283,ESC MUL FORTALEZA,-0.0483,-51.136,0.94,223,No,Municipal,Rural,Yes,5.0,Norte,1,Amapá,BR16,Macapá,BR1600303,Yes
ffb12fe5-3ed6-3e6f-b311-7661994592eb,Brazil,government,16006291,ESC EST PROF IZANETE VICTOR DOS SANTOS,-0.0295,-51.1672,1.0,917,Yes,Estadual,Urban,Yes,5.0,Norte,1,Amapá,BR16,Santana,BR1600600,Yes
f6b488a8-56d2-3e7a-a030-1080d0f0af8f,Brazil,government,16006313,ESC EST PIQUIAZAL,-0.1488,-51.4863,1.0,38,No,Estadual,Rural,Yes,5.0,Norte,1,Amapá,BR16,Mazagão,BR1600402,Yes
2f2bf5e4-e8df-3432-a8de-cb8240d4fcfd,Brazil,government,16006330,ESC INDIGENA EST KUXARE,1.0966,-53.3059,0.67,131,No,Estadual,Rural,No,0.0,Norte,1,Amapá,BR16,Laranjal do Jari,BR1600279,No
b43a10e5-8d3e-3ab3-81d7-067f1be83eb6,Brazil,government,16006348,ESC INDIGENA EST TAWAINEN,1.0966,-53.3059,0.67,252,No,Estadual,Rural,No,0.0,Norte,1,Amapá,BR16,Laranjal do Jari,BR1600279,No
21042f70-608c-3fc7-ba4e-bdb3ed0bd6f4,Brazil,government,16006356,ESC INDIGENA EST ANANAPIARE,1.0966,-53.3059,0.67,34,No,Estadual,Rural,No,0.0,Norte,1,Amapá,BR16,Laranjal do Jari,BR1600279,No
70dc1e88-5d4a-387e-86a0-aa7bdfcfb733,Brazil,government,16006364,ESC EST AQUARIQUARA,0.1928,-50.8244,0.67,3,No,Estadual,Rural,No,0.0,Norte,1,Amapá,BR16,Macapá,BR1600303,No
00ca51f5-8809-3008-9b05-10146a5a7f27,Brazil,government,16006372,ESC EST SAO BENTO,-0.0304,-51.1739,1.0,637,No,Estadual,Urban,Yes,2.0,Norte,1,Amapá,BR16,Santana,BR1600600,Yes
bff7a436-8850-32d3-b05d-f1622b1d6584,Brazil,government,16006380,ESC MUL DO LATAIA,2.0574,-51.7754,1.0,0,,Municipal,Rural,,,Norte,1,Amapá,BR16,Calçoene,BR1600204,No
980c69ea-63d7-3209-9212-d306bec987d9,Brazil,government,16006399,ESCOLA MUNICIPAL DE EDUCACAO BASICA MATAPI MIRIM,-0.0511,-51.1983,1.0,111,No,Municipal,Rural,Yes,5.0,Norte,1,Amapá,BR16,Santana,BR1600600,Yes
ec4704ca-f014-3051-bf28-23aca6229e92,Brazil,government,16006429,ESC MUL JOANA ALFAIA DA CONCEICAO,-0.5845,-52.1567,1.0,13,No,Municipal,Rural,No,0.0,Norte,1,Amapá,BR16,Laranjal do Jari,BR1600279,No
7b0e07a0-5e71-3ce5-a82d-ca2e14eff324,Brazil,government,16006445,ESC MUL IGARAPE DO PEIXE APOREMA,1.5074,-50.9138,0.67,47,No,Municipal,Rural,No,0.0,Norte,1,Amapá,BR16,Tartarugalzinho,BR1600709,No
2334141b-d177-38a5-b335-a77808f7b673,Brazil,government,16006453,ESC MUL WALDEMAR BORGES DUARTE,-0.6092,-52.0605,1.0,13,No,Municipal,Rural,No,0.0,Norte,1,Amapá,BR16,Laranjal do Jari,BR1600279,No
56912fbd-a619-3a68-a41d-a6c33a6fa791,Brazil,government,16006461,ESCOLA ESTADUAL MARIA IVONE DE MENEZES,0.052,-51.0423,0.94,830,Yes,Estadual,Urban,Yes,2.0,Norte,1,Amapá,BR16,Macapá,BR1600303,Yes
d1750130-2c21-34fd-b545-7ce9b2da6abf,Brazil,government,16006500,ESC INDIGENA EST KAMUYWA,3.7193,-51.6191,0.67,23,No,Estadual,Rural,No,0.0,Norte,1,Amapá,BR16,Oiapoque,BR1600501,No
64d9a4e4-760e-3734-b3f1-da378b8757af,Brazil,government,16006518,ESC INDIGENA EST OLIVEIRA SANTOS,3.7193,-51.6191,0.67,6,No,Estadual,Rural,No,0.0,Norte,1,Amapá,BR16,Oiapoque,BR1600501,No
5f3e28f8-c85f-3c9c-b6cd-1410bacb9860,Brazil,government,16006526,ESC INDIGENA EST JOAO AMANCIO,3.7193,-51.6191,0.67,3,No,Estadual,Rural,No,0.0,Norte,1,Amapá,BR16,Oiapoque,BR1600501,No
25871024-3ec1-34a2-ba09-b08d47a0a24f,Brazil,government,16006534,ESC INDIGENA EST JOSE FELIPE,3.7193,-51.6191,0.67,3,No,Estadual,Rural,No,0.0,Norte,1,Amapá,BR16,Oiapoque,BR1600501,No
d7ba96e1-7d30-3881-a7be-cf2bed9d9c3b,Brazil,government,16006569,ESC MUL SAO FRANCISCO DO MARAPI,-1.0586,-52.2833,1.0,0,,Municipal,Rural,,,Norte,1,Amapá,BR16,Vitória do Jari,BR1600808,No
9cee99f4-c034-33a7-86ab-162cb3141f16,Brazil,government,16006577,ESC EST SAO SEBASTIAO DO LAGO PIRATIVA,0.1396,-51.3054,1.0,13,No,Estadual,Rural,No,0.0,Norte,1,Amapá,BR16,Santana,BR1600600,No
7cb293f5-1257-3087-933b-84938443ff0c,Brazil,government,16006585,ESC MUL ALVARO MARQUES GONCALVES,-0.919,-52.4147,0.94,424,Yes,Municipal,Urban,No,0.0,Norte,1,Amapá,BR16,Vitória do Jari,BR1600808,No
21ee2116-2eac-3650-90d1-eeb841540457,Brazil,government,16006607,ESC MUL SANTA ANA DO CAJARI,-0.8052,-51.715,0.94,67,No,Municipal,Rural,No,0.0,Norte,1,Amapá,BR16,Vitória do Jari,BR1600808,No
93076c3b-67bf-3548-a665-a4a75a67c7c3,Brazil,government,16006615,ESC MUL SANTA HELENA,-0.9141,-52.1079,1.0,0,,Municipal,Rural,,,Norte,1,Amapá,BR16,Vitória do Jari,BR1600808,No
2d3b9170-48dc-3928-9043-aa44daf4439b,Brazil,government,16006631,ESC EST REISALINA FERREIRA TOMAZ,1.5101,-50.9128,1.0,353,Yes,Estadual,Urban,Yes,5.0,Norte,1,Amapá,BR16,Tartarugalzinho,BR1600709,Yes
b973aa1b-7079-3948-8b38-3f2d1745a5df,Brazil,government,16006640,ESC MUL FRANCISCO BEZERRA DA SILVA,-1.2335,-52.0678,1.0,0,,Municipal,Rural,,,Norte,1,Amapá,BR16,Vitória do Jari,BR1600808,No
e41c29a6-8c08-3f55-856b-537a79869f0e,Brazil,government,16006658,ESC MUL RIO PRIMEIRO DO CASSIPORE,3.0438,-51.4611,1.0,33,No,Municipal,Rural,No,0.0,Norte,1,Amapá,BR16,Oiapoque,BR1600501,No
d37d470e-f151-34c7-aef4-cc52566b15df,Brazil,government,16006666,ESC EST SANTO ANTONIO DO JARI,-0.8414,-52.5195,1.0,249,No,Estadual,Urban,Yes,5.0,Norte,1,Amapá,BR16,Laranjal do Jari,BR1600279,Yes
bde7985a-5520-30fd-9168-b15fc1ba9251,Brazil,government,16006682,ESC MUL SANTA MARIA MENINA,-0.8534,-52.5392,1.0,323,No,Municipal,Urban,No,0.0,Norte,1,Amapá,BR16,Laranjal do Jari,BR1600279,Yes
cfd706e9-0caa-3f26-affd-ae2e6c8ac0da,Brazil,government,16006690,ESC MUL BENEDITO LIMA PENELVA,-0.9342,-52.433,0.94,361,No,Municipal,Urban,No,0.0,Norte,1,Amapá,BR16,Vitória do Jari,BR1600808,No
ab52e36f-e601-3eed-91b1-92cfbdfa6b50,Brazil,government,16006704,ESC MUL WEBER EIDER QUEMEL GONCALVES,-0.8531,-52.5367,1.0,416,No,Municipal,Urban,No,0.0,Norte,1,Amapá,BR16,Laranjal do Jari,BR1600279,No
671d16e8-4e1d-3c3a-a44c-179f9daab83e,Brazil,government,16006712,ESC MUL ARUANS,-0.9227,-51.7075,1.0,31,No,Municipal,Rural,No,0.0,Norte,1,Amapá,BR16,Vitória do Jari,BR1600808,No
cfc081a8-3ac5-34be-8685-a5e89bb7f865,Brazil,government,16006747,ESC EST COLONIA AGRICOLA LINHA H DO MATAPI,0.6094,-51.4109,1.0,72,No,Estadual,Rural,Yes,2.0,Norte,1,Amapá,BR16,Porto Grande,BR1600535,Yes
859fd83b-e97b-3c6a-b522-b9afec3a5458,Brazil,government,16006755,ESC MUL COLONIA DO CACHACO,0.8824,-52.0184,1.0,126,No,Municipal,Rural,Yes,2.0,Norte,1,Amapá,BR16,Serra do Navio,BR1600055,Yes
a725d2ca-511d-3cb2-8898-311e2e5be132,Brazil,government,16006763,ESC EST SANTUARIO DO PERPETUO SOCORRO,0.046,-51.0495,0.94,441,Yes,Estadual,Urban,Yes,2.0,Norte,1,Amapá,BR16,Macapá,BR1600303,Yes
1dd95ea3-48f8-388a-b6cc-24caf7d47ade,Brazil,government,16006771,ESC EST NOVO HORIZONTE,-0.0557,-51.1647,1.0,122,Yes,Estadual,Urban,Yes,2.0,Norte,1,Amapá,BR16,Santana,BR1600600,Yes
60abfc0a-d2dc-3963-a840-eb2153a0becc,Brazil,government,16006780,ESC EST PROF MARIA DE NAZARE PEREIRA VASCONCELOS,0.0081,-51.065,0.94,1165,Yes,Estadual,Urban,Yes,5.0,Norte,1,Amapá,BR16,Macapá,BR1600303,Yes
df5b6b48-b393-3e33-9eb0-63e16a551730,Brazil,government,16006798,ESC EST PROF HELENISE WALMIRA DIAS SANTOS,0.0518,-51.1251,1.0,610,Yes,Estadual,Rural,Yes,5.0,Norte,1,Amapá,BR16,Macapá,BR1600303,Yes
cc47317d-b2f3-3fa9-8bdb-3c5e2813ea73,Brazil,government,16006810,ESC MUL SANTA MARIA DO CAPIVARA,1.6544,-52.2721,1.0,0,,Municipal,Rural,,,Norte,1,Amapá,BR16,Serra do Navio,BR1600055,No
e2820895-6bb1-3364-8822-bb8295700bdf,Brazil,government,16006844,ESC EST IGARAPE DAS ARMAS,0.3029,-51.0647,0.67,30,Yes,Estadual,Rural,No,0.0,Norte,1,Amapá,BR16,Macapá,BR1600303,No
69faaaa9-e0f1-309a-9aa7-9f73ebd78192,Brazil,government,16006852,ESC EST MARIA NEUSA CARMO DE SOUSA,0.0838,-51.0657,1.0,905,No,Estadual,Urban,Yes,5.0,Norte,1,Amapá,BR16,Macapá,BR1600303,Yes
acc3ffdf-2b9e-301c-9acc-d5dd40685005,Brazil,government,16006860,ESC EST SAO PAULO,-0.0357,-51.1798,1.0,486,Yes,Estadual,Urban,Yes,5.0,Norte,1,Amapá,BR16,Santana,BR1600600,Yes
c02162f8-19ba-3fe7-a7b9-f5ab3ccc1c44,Brazil,government,16006879,ESC EST PROF MARGARIDA ROCHA DA COSTA,-0.0486,-51.137,0.94,162,No,Estadual,Rural,Yes,5.0,Norte,1,Amapá,BR16,Macapá,BR1600303,Yes
f6d5a09c-4f37-3d17-8791-32852b1bae82,Brazil,government,16006895,ESC MUL NOSSA SENHORA DO PERPETUO SOCORRO,0.9391,-51.9969,0.67,196,Yes,Municipal,Rural,Yes,2.0,Norte,1,Amapá,BR16,Serra do Navio,BR1600055,Yes
37382edb-8cd9-34e1-a82c-3c31345e0ae5,Brazil,government,16006909,ESC EST SAO JOAO DO MATAPI,0.046,-51.2428,0.94,37,No,Estadual,Rural,No,0.0,Norte,1,Amapá,BR16,Santana,BR1600600,No
51bd3643-0933-310a-ac05-3199af9a5282,Brazil,government,16006917,ESC EST PROF DENISE DE MELO VASCONCELOS,-0.0449,-51.1529,1.0,348,No,Estadual,Urban,Yes,2.0,Norte,1,Amapá,BR16,Santana,BR1600600,Yes
c8e3fdff-5612-3c42-81fb-8291b7609bf4,Brazil,government,16006925,ESC MUL GERINO DA SILVA PORTO,0.665,-51.8598,0.94,41,No,Municipal,Rural,No,0.0,Norte,1,Amapá,BR16,Porto Grande,BR1600535,No
e2235d35-14ec-305a-951a-a131fde65c7e,Brazil,government,16006933,ESC EST JOSE RIBAMAR TEIXEIRA,0.7076,-51.4079,1.0,377,No,Estadual,Urban,Yes,2.0,Norte,1,Amapá,BR16,Porto Grande,BR1600535,Yes
1cf99d29-0be7-3bb5-96ec-5e0a1962dde4,Brazil,government,16006941,ESC MUL ALZIRA P QUEIROZ,0.5814,-51.4267,1.0,67,No,Municipal,Rural,No,0.0,Norte,1,Amapá,BR16,Porto Grande,BR1600535,No
aeda73ac-6680-3d36-8681-cc7c70fe6259,Brazil,government,16006976,ESC MUL PASTOR JACI TORQUATO,0.8526,-51.1841,1.0,585,No,Municipal,Urban,No,0.0,Norte,1,Amapá,BR16,Ferreira Gomes,BR1600238,No
8e918729-4fc9-329a-9a1b-7650fb8bd60b,Brazil,government,16006984,ESC MUL COARACY NUNES,0.8896,-51.2557,1.0,14,No,Municipal,Rural,No,0.0,Norte,1,Amapá,BR16,Ferreira Gomes,BR1600238,No
143df29d-c546-323c-9d7c-047826c7b623,Brazil,government,16007018,CENTRO EDUC INF MEU PEDACINHO DE CHAO,2.4927,-50.9512,1.0,163,No,Municipal,Urban,No,0.0,Norte,1,Amapá,BR16,Calçoene,BR1600204,No
fbad1f48-5720-3232-9bbd-1fba68f4e69a,Brazil,government,16007026,ESC MUL EDUARDA SANTA ROSA,-0.8414,-52.5187,1.0,28,No,Municipal,Rural,No,0.0,Norte,1,Amapá,BR16,Laranjal do Jari,BR1600279,No
7f97b992-ea43-3ddf-aa90-ba1613e8922f,Brazil,government,16007069,ESCOLA MUNICIPAL VO LIXANDRE,0.1793,-51.2711,1.0,122,No,Municipal,Rural,Yes,5.0,Norte,1,Amapá,BR16,Macapá,BR1600303,Yes
e6605a50-031d-36e0-b8af-a7453e0ecf33,Brazil,government,16007077,ESC MUL N S DE APARECIDA,-1.1347,-51.9353,1.0,0,,Municipal,Rural,,,Norte,1,Amapá,BR16,Vitória do Jari,BR1600808,No
b26fd36a-2955-371f-be99-9a214d163fa5,Brazil,government,16007085,ESC MUL TAPEREIRA,-0.8859,-51.901,0.94,34,No,Municipal,Rural,No,0.0,Norte,1,Amapá,BR16,Vitória do Jari,BR1600808,No
2b06b339-e3d1-3198-b72f-e82ac1881675,Brazil,government,16007093,ESC MUL JOSE NONATO DE SOUZA,-0.9237,-52.0684,1.0,46,No,Municipal,Rural,No,0.0,Norte,1,Amapá,BR16,Vitória do Jari,BR1600808,No
d5c3e5e5-4f53-379a-8e9f-adace5f546de,Brazil,government,16007115,ESC MUL KM 138,0.6295,-51.6687,1.0,69,No,Municipal,Rural,No,0.0,Norte,1,Amapá,BR16,Porto Grande,BR1600535,No
fe955ec1-ed3c-3f87-8d3f-0e29b0bc5e4d,Brazil,government,16007123,IFAP - CAMPUS LARANJAL DO JARI,-0.822,-52.5154,0.94,725,Yes,Federal,Urban,Yes,5.0,Norte,1,Amapá,BR16,Laranjal do Jari,BR1600279,Yes
bb462393-5504-3ec5-9e9d-471809832599,Brazil,government,16007131,ESC MUL PAGA DIVIDA,-1.1272,-52.2229,1.0,29,No,Municipal,Rural,No,0.0,Norte,1,Amapá,BR16,Vitória do Jari,BR1600808,No
be7a9608-8543-3612-b9fb-ff11288181dc,Brazil,government,16007140,ESC EST DARCY RIBEIRO,1.2498,-51.1292,1.0,101,Yes,Estadual,Rural,No,0.0,Norte,1,Amapá,BR16,Tartarugalzinho,BR1600709,No
e2606b54-152a-3485-bf07-18a36f7b2f57,Brazil,government,16007174,ESC MUL DEUS POR NOS,1.0305,-50.4841,1.0,0,,Municipal,Rural,,,Norte,1,Amapá,BR16,Cutias,BR1600212,No
78790ae1-3ae9-3739-abb1-af1a9b29f13c,Brazil,government,16007182,ESC MUL ALTA FLORESTA,1.0305,-50.4841,0.67,19,No,Municipal,Rural,No,0.0,Norte,1,Amapá,BR16,Cutias,BR1600212,No
839b98cb-e65c-3b47-bf56-df8b36270666,Brazil,government,16007204,ESC MUL NOVA DIVISAO,1.0857,-52.3491,1.0,27,No,Municipal,Rural,No,0.0,Norte,1,Amapá,BR16,Pedra Branca do Amapari,BR1600154,No
8aee2d30-fabd-32df-94f6-2f1f31399189,Brazil,government,16007220,ESC EST ANA DIAS DA COSTA,-0.0486,-51.1433,1.0,256,Yes,Estadual,Rural,Yes,5.0,Norte,1,Amapá,BR16,Santana,BR1600600,Yes
4a7691c0-9379-37c4-a796-37e3d9d0f048,Brazil,government,16007239,PRE ESC EFICAZ,0.0849,-51.0651,1.0,141,No,Municipal,Urban,Yes,5.0,Norte,1,Amapá,BR16,Macapá,BR1600303,Yes
3766228a-91bd-3e5f-b7bc-050bc7a00c24,Brazil,government,16007255,ESC MUL ANDIROBA DO LAGO NOVO,1.4033,-50.7225,1.0,103,No,Municipal,Rural,No,0.0,Norte,1,Amapá,BR16,Tartarugalzinho,BR1600709,No
4ad33aba-346a-3ff9-93e9-c1334abcef14,Brazil,government,16007271,ESC EST RIVANDA NAZARE DA S GUIMARAES,0.0969,-51.0498,1.0,1504,Yes,Estadual,Urban,Yes,5.0,Norte,1,Amapá,BR16,Macapá,BR1600303,Yes
a83c4253-7e47-3bb5-a589-5ea3c304ae0d,Brazil,government,16007301,ESC MUL ROSA DE SARON,0.8773,-50.048,0.94,76,No,Municipal,Rural,No,0.0,Norte,1,Amapá,BR16,Macapá,BR1600303,No
a20db980-e267-3cf5-8c81-633408424f77,Brazil,government,16007310,IFAP - CAMPUS MACAPA,0.0867,-51.0915,1.0,774,Yes,Federal,Urban,Yes,5.0,Norte,1,Amapá,BR16,Macapá,BR1600303,Yes
8abdd945-8ae0-3a1d-b4f4-62b49a78a9ea,Brazil,government,16007344,ESC MUL DO MUTUM,2.5632,-50.9447,1.0,7,No,Municipal,Rural,No,0.0,Norte,1,Amapá,BR16,Calçoene,BR1600204,No
962fb32f-928c-3f0d-a029-e6a740f3df02,Brazil,government,16007352,ESC EST FONTE NOVA,-0.0191,-51.1693,1.0,402,Yes,Estadual,Urban,Yes,2.0,Norte,1,Amapá,BR16,Santana,BR1600600,Yes
88c2ab39-2983-3a06-827f-50cd6957be09,Brazil,government,16007360,ESC EST MARIA LOPES DA CONCEICAO,0.7226,-50.7083,1.0,155,No,Estadual,Rural,Yes,5.0,Norte,1,Amapá,BR16,Macapá,BR1600303,No
09d8a33f-25f5-3ab7-a88d-7845575de51e,Brazil,government,16007379,ESC MUL CACILDA FERREIRA VASCONCELOS,-0.0475,-51.1131,1.0,433,No,Municipal,Rural,Yes,5.0,Norte,1,Amapá,BR16,Macapá,BR1600303,Yes
c81daca1-8f73-381e-866a-527148942675,Brazil,government,16007387,ESC EST FRANQUINHO DO BAILIQUE,0.9537,-50.1161,0.67,9,No,Estadual,Rural,No,0.0,Norte,1,Amapá,BR16,Macapá,BR1600303,No
5e7744ce-1ac5-3409-911d-eca7fe8e92c1,Brazil,government,16007395,ESC EST DE EDUC POP PROF PAULO FREIRE,0.0262,-51.0624,1.0,471,Yes,Estadual,Urban,Yes,5.0,Norte,1,Amapá,BR16,Macapá,BR1600303,Yes
96a26e64-a4da-3512-bf9e-05f12a166d21,Brazil,government,16007409,ESC MUL RECANTO DA AMIZADE,0.0337,-51.0822,1.0,180,No,Municipal,Urban,No,0.0,Norte,1,Amapá,BR16,Macapá,BR1600303,No
dff9d97d-636c-33a3-a271-47cf1c1df161,Brazil,government,16007441,ESC EST PROF ESTHER DA SILVA VIRGOLINO,0.0723,-51.0613,1.0,1000,Yes,Estadual,Urban,Yes,5.0,Norte,1,Amapá,BR16,Macapá,BR1600303,Yes
007ecad3-60f7-3838-888e-86890e19e375,Brazil,government,16007450,ESC EST PROF ARACY MIRANDA DE MONTALVERNE,0.0206,-51.0752,1.0,533,Yes,Estadual,Urban,Yes,5.0,Norte,1,Amapá,BR16,Macapá,BR1600303,Yes
055e3bf0-2b89-37f7-a3c3-be356d1c582d,Brazil,government,16007468,ESC EST PROF ELCY RODRIGUES LACERDA,0.0168,-51.0598,1.0,66,No,Estadual,Urban,Yes,5.0,Norte,1,Amapá,BR16,Macapá,BR1600303,Yes
a5c9e83d-8d28-388e-b23a-ddc3131602ec,Brazil,government,16007476,CENTRO EDUCACIONAL RAIMUNDO NONATO DIAS RODRIGUES,0.027,-51.075,0.89,508,Yes,Estadual,Urban,Yes,5.0,Norte,1,Amapá,BR16,Macapá,BR1600303,Yes
8589d2e5-c547-306c-a1af-9afc8b7c791d,Brazil,government,16007492,ESC EST MARIA ANGELICA PEREIRA GOES,-0.0496,-51.1186,1.0,475,No,Estadual,Rural,Yes,2.0,Norte,1,Amapá,BR16,Macapá,BR1600303,Yes
bc3422c3-ec18-3519-ba77-77e52e86d015,Brazil,government,16007530,ESC EST BRASIL NOVO,0.0884,-51.086,0.94,343,No,Estadual,Urban,Yes,2.0,Norte,1,Amapá,BR16,Macapá,BR1600303,Yes
e97f2673-4d51-3b96-a4a2-5d0ec1ee9634,Brazil,government,16007549,ESC MUL FRANCISCO TORRES,1.5329,-50.2316,0.67,11,No,Municipal,Rural,No,0.0,Norte,1,Amapá,BR16,Amapá,BR1600105,No
1c78d5be-53dc-35ec-9688-e0d504154277,Brazil,government,16007557,ESC MUL SOROROCA,-0.331,-51.9551,0.94,61,No,Municipal,Rural,No,0.0,Norte,1,Amapá,BR16,Mazagão,BR1600402,No
e7843cf1-e01b-38fc-99c3-e374821b372a,Brazil,government,16007565,ESCOLA MUL ANALICE MACIEL DE JESUS,1.5081,-50.9113,1.0,528,Yes,Municipal,Urban,Yes,5.0,Norte,1,Amapá,BR16,Tartarugalzinho,BR1600709,Yes
4473b8b6-c873-3eb5-8055-259469a59e6d,Brazil,government,16007573,ESC MUL SAO RAIMUNDO DO PARAISO,0.2294,-50.8173,1.0,41,No,Municipal,Rural,No,0.0,Norte,1,Amapá,BR16,Macapá,BR1600303,No
7d2a3419-7866-3c2c-b4a5-a61e763976b4,Brazil,government,16007581,PROFESSORA MARIA IZABEL FERNANDES RIBEIRO,0.1014,-51.0552,1.0,318,No,Municipal,Urban,Yes,5.0,Norte,1,Amapá,BR16,Macapá,BR1600303,Yes
d71d73ab-1c0a-3f54-acbc-073bb0b1cddd,Brazil,government,16007590,PRE ESC EVILASIO PEDRO DE LIMA FERREIRA,-0.1805,-51.7382,1.0,121,No,Municipal,Rural,No,0.0,Norte,1,Amapá,BR16,Mazagão,BR1600402,No
bb6ffc60-d54a-3b84-b679-296a4c742826,Brazil,government,16007611,ESC MUL BOM SUCESSO,0.5074,-50.5383,1.0,11,No,Municipal,Rural,No,0.0,Norte,1,Amapá,BR16,Itaubal,BR1600253,No
4173eb6c-1645-38a9-93c8-80043404900a,Brazil,government,16007620,PRE ESC TIA MIQUILINA,0.3715,-50.6777,1.0,16,No,Municipal,Rural,No,0.0,Norte,1,Amapá,BR16,Itaubal,BR1600253,No
357945b9-d945-3133-a9d9-ecfa18a551d3,Brazil,government,16007646,ESC MUL J ALMEIDA,0.6026,-50.6994,1.0,342,No,Municipal,Urban,No,0.0,Norte,1,Amapá,BR16,Itaubal,BR1600253,No
77838486-6904-360d-99d9-b92c0b11d666,Brazil,government,16007654,ESC BOSQUE DO AMAPA MOD REG DO BAILIQUE,0.8742,-50.0598,1.0,643,No,Estadual,Rural,Yes,2.0,Norte,1,Amapá,BR16,Macapá,BR1600303,Yes
939e4f6b-cce1-3bed-b9a1-71f54f978ae6,Brazil,government,16007689,ESC MUL DIREITOS HUMANOS,0.9353,-51.9376,1.0,14,No,Municipal,Rural,No,0.0,Norte,1,Amapá,BR16,Serra do Navio,BR1600055,No
830f8bb2-0bb2-38b3-8afa-d7d9df3a151b,Brazil,government,16007697,ESC MUL BEIJA FLOR,0.9014,-52.0048,1.0,294,No,Municipal,Urban,No,0.0,Norte,1,Amapá,BR16,Serra do Navio,BR1600055,Yes
8625d2c9-76ca-321d-bcc4-a6fb20d0b182,Brazil,government,16007700,ESC EST SAO JOSE DO MUTUM,1.3068,-51.0755,1.0,40,No,Estadual,Rural,No,0.0,Norte,1,Amapá,BR16,Tartarugalzinho,BR1600709,No
7e5afc43-4af3-3e18-af70-a68502c3c2af,Brazil,government,16007760,ESC EST SANTA MARIA,0.7057,-51.4041,1.0,63,No,Estadual,Rural,No,0.0,Norte,1,Amapá,BR16,Porto Grande,BR1600535,No
95646bd1-b2c0-356c-a2d8-a50ea6912901,Brazil,government,16007778,ESC EST NOVA VIDA,0.9902,-51.2812,1.0,141,No,Estadual,Rural,No,0.0,Norte,1,Amapá,BR16,Tartarugalzinho,BR1600709,No
4d8d6cb4-5042-31e3-8bd0-135e6b797919,Brazil,government,16007832,ESC MUL AUGUSTO ROCHA,1.743,-50.7867,0.94,340,No,Municipal,Urban,No,0.0,Norte,1,Amapá,BR16,Pracuúba,BR1600550,Yes
6a395d8c-53f4-3ed5-a37a-7a895bde4021,Brazil,government,16007840,ESC INDIGENA EST ARANAPOTY,1.0966,-53.3059,0.67,20,No,Estadual,Rural,No,0.0,Norte,1,Amapá,BR16,Laranjal do Jari,BR1600279,No
0cb62bf6-a864-38ef-960d-87eb5d18bd35,Brazil,government,16007859,ESC INDIGENA EST MUREI,1.0966,-53.3059,0.67,36,No,Estadual,Rural,No,0.0,Norte,1,Amapá,BR16,Laranjal do Jari,BR1600279,No
dd634cf3-92a8-3b91-8234-877edbe7f51e,Brazil,government,16007867,ESC EST MIRILANDIA,-0.8373,-52.5246,1.0,92,Yes,Estadual,Urban,Yes,5.0,Norte,1,Amapá,BR16,Laranjal do Jari,BR1600279,Yes
3a9121a8-b882-3648-acc9-8af3041874c3,Brazil,government,16007875,ESC EST PROSPERIDADE,-0.8396,-52.5188,1.0,142,Yes,Estadual,Urban,Yes,5.0,Norte,1,Amapá,BR16,Laranjal do Jari,BR1600279,Yes
d2ab07d6-f1b8-3d71-b89a-dbb0560a764b,Brazil,government,16007883,ESC MUL RAIMUNDA RODRIGUES CAPIBERIBE,-0.8406,-52.5201,1.0,1256,Yes,Municipal,Urban,Yes,5.0,Norte,1,Amapá,BR16,Laranjal do Jari,BR1600279,No
ea598925-60d4-3065-9aae-fb887d7dabe8,Brazil,government,16007905,ESC EST BOM AMIGO MANOEL MANDI,-0.8234,-52.5046,1.0,165,No,Estadual,Urban,Yes,2.0,Norte,1,Amapá,BR16,Laranjal do Jari,BR1600279,Yes
3fae5a8f-3b9c-3b45-8d15-ede001c4a0a9,Brazil,government,16007913,ESC INDIGENA EST WEREKEMUN,1.0966,-53.3059,0.67,34,No,Estadual,Rural,No,0.0,Norte,1,Amapá,BR16,Laranjal do Jari,BR1600279,No
12bacb66-8baf-327d-b7e5-13e06ff25e46,Brazil,government,16007930,ESC MUL PROF MARIA LEOPOLDINA A RODRIGUES,3.8451,-51.8324,1.0,1182,Yes,Municipal,Urban,Yes,2.0,Norte,1,Amapá,BR16,Oiapoque,BR1600501,Yes
096509c9-1748-3f9b-ab2a-a9a3165a6633,Brazil,government,16007948,CENTRO DE ATENDIMENTO INFANTIL VO OLGA,-0.2164,-51.435,0.94,240,No,Municipal,Rural,Yes,2.0,Norte,1,Amapá,BR16,Mazagão,BR1600402,Yes
3ad14739-3556-303d-b779-9bc6aec6c738,Brazil,government,16007956,CRECHE VO JOANA AYRES,-0.1222,-51.2844,1.0,100,No,Municipal,Urban,No,0.0,Norte,1,Amapá,BR16,Mazagão,BR1600402,No
23afdf03-8c6b-312e-a647-5bb86198a82a,Brazil,government,16007964,ESC MUL PROF ALICE DO N S PIMENTEL,1.0305,-50.4841,0.67,460,No,Municipal,Urban,Yes,5.0,Norte,1,Amapá,BR16,Cutias,BR1600212,No
38966edb-2004-3968-801f-f8ead4fefd02,Brazil,government,16007972,ESC MUL SAO MIGUEL,0.5879,-51.6737,1.0,0,,Municipal,Rural,,,Norte,1,Amapá,BR16,Porto Grande,BR1600535,No
6609e6be-7247-3fe2-9f15-d805a2c9ac6e,Brazil,government,16007999,ESC MUL PAULO FREIRE,-0.856,-52.5248,0.94,350,No,Municipal,Urban,Yes,5.0,Norte,1,Amapá,BR16,Laranjal do Jari,BR1600279,No
