uuid,country,source,source_school_id,school_name,latitude,longitude,dq_score,student_count,computer_availability,school_type,school_region,internet_availability,internet_speed_Mbps,region,region_code,state,state_code,city,city_code,internet_availability_prediction
f28334f3-cec1-3d3e-b3fc-8881719b88ca,Brazil,government,32000014,EP CORREGO DA JACUTINGA,-18.5161,-40.9621,1.0,0,,Municipal,Rural,,,Sudeste,3,Espírito Santo,BR32,Água Doce do Norte,BR3200169,No
4f84c975-d85c-3440-87a3-73631de2c0eb,Brazil,government,32000022,EP FAZENDA JOAO NOHIA,-18.5161,-40.9621,1.0,0,,Municipal,Rural,,,Sudeste,3,Espírito Santo,BR32,Água Doce do Norte,BR3200169,No
be1f5fec-607a-3a98-9ddb-bc086c812682,Brazil,government,32000030,EP SAO SEBASTIAO,-18.4818,-40.9364,1.0,19,No,Municipal,Rural,Yes,5.0,Sudeste,3,Espírito Santo,BR32,Água Doce do Norte,BR3200169,No
5b52b04f-581e-37f2-a751-47a773497ec2,Brazil,government,32000049,EMCEIEF JOAO ANTONIO MOREIRA,-18.4588,-40.941,0.94,68,Yes,Municipal,Rural,Yes,2.0,Sudeste,3,Espírito Santo,BR32,Água Doce do Norte,BR3200169,Yes
76e12590-0c2e-3f13-99ba-6cf81f84efce,Brazil,government,32000057,EEEFM SEBASTIAO COIMBRA ELIZEU,-18.5501,-40.9775,1.0,543,Yes,Estadual,Urban,Yes,5.0,Sudeste,3,Espírito Santo,BR32,Água Doce do Norte,BR3200169,Yes
88e22127-21f2-330d-8cf1-4c3ba8861296,Brazil,government,32000073,EU ALTO SAO DOMINGOS,-18.5161,-40.9621,1.0,0,,Municipal,Rural,,,Sudeste,3,Espírito Santo,BR32,Água Doce do Norte,BR3200169,No
71cd1cca-0c5e-30e6-a53a-dc8b4aae1e85,Brazil,government,32000081,EU BARRA DA LAJINHA,-18.5161,-40.9621,1.0,0,,Municipal,Rural,,,Sudeste,3,Espírito Santo,BR32,Água Doce do Norte,BR3200169,No
9b87b47c-2c46-3d58-9003-631b9834877b,Brazil,government,32000090,EU BOM JESUS,-18.5161,-40.9621,1.0,0,,Municipal,Rural,,,Sudeste,3,Espírito Santo,BR32,Água Doce do Norte,BR3200169,No
7150eb72-5ca6-3b3f-87a5-25a740f3aecd,Brazil,government,32000103,EMUEF CORREGO DA PRATINHA,-18.5161,-40.9621,1.0,0,,Municipal,Rural,,,Sudeste,3,Espírito Santo,BR32,Água Doce do Norte,BR3200169,No
ee0c3a63-6533-31d5-b5be-eb507644841b,Brazil,government,32000111,EU CORREGO DO HAVAI I,-18.5161,-40.9621,1.0,0,,Municipal,Rural,,,Sudeste,3,Espírito Santo,BR32,Água Doce do Norte,BR3200169,No
c4166df2-ffdd-36e9-b5d3-eeb8e8ed45fd,Brazil,government,32000120,EU CORREGO DOS MARCIANOS,-18.5161,-40.9621,1.0,0,,Municipal,Rural,,,Sudeste,3,Espírito Santo,BR32,Água Doce do Norte,BR3200169,No
6b0cb302-0562-3692-8cbc-abe9c64163b0,Brazil,government,32000138,EU CORREGO SAO DOMINGOS,-18.5161,-40.9621,1.0,0,,Municipal,Rural,,,Sudeste,3,Espírito Santo,BR32,Água Doce do Norte,BR3200169,No
6e64921c-f733-3886-8b2b-0a5d14f2c54f,Brazil,government,32000146,EU DOS DOMINGOS,-18.5161,-40.9621,1.0,0,,Municipal,Rural,,,Sudeste,3,Espírito Santo,BR32,Água Doce do Norte,BR3200169,No
97cd0a3b-9955-38b4-ac16-b517eae350a3,Brazil,government,32000154,EU FAZENDA DOS DOMINGOS,-18.5161,-40.9621,1.0,0,,Municipal,Rural,,,Sudeste,3,Espírito Santo,BR32,Água Doce do Norte,BR3200169,No
92d2c67e-b35f-3d1a-90b0-de779663b4fa,Brazil,government,32000162,EU FAZENDA DOS INACIOS,-18.5161,-40.9621,1.0,0,,Municipal,Rural,,,Sudeste,3,Espírito Santo,BR32,Água Doce do Norte,BR3200169,No
171421cd-d2d1-39d5-bb44-006f6d35c410,Brazil,government,32000170,EU MUL AGRIPINO JOSE DE MORAES,-18.5161,-40.9621,1.0,0,,Municipal,Rural,,,Sudeste,3,Espírito Santo,BR32,Água Doce do Norte,BR3200169,No
95ab4a7a-cdbd-3140-a0ee-fc589d83d109,Brazil,government,32000189,EU MUL ALICE GONCALVES OLIVEIRA,-18.5161,-40.9621,1.0,0,,Municipal,Rural,,,Sudeste,3,Espírito Santo,BR32,Água Doce do Norte,BR3200169,No
666e6114-a635-3a62-9929-846c28e139e2,Brazil,government,32000197,EU MUL CABECEIRA DE AGUA DOCE,-18.5161,-40.9621,1.0,0,,Municipal,Rural,,,Sudeste,3,Espírito Santo,BR32,Água Doce do Norte,BR3200169,No
fe5f214a-c2ee-3365-ba09-4d3952803948,Brazil,government,32000200,EU MUL CORREGO CACHOEIRINHA,-18.5161,-40.9621,1.0,0,,Municipal,Rural,,,Sudeste,3,Espírito Santo,BR32,Água Doce do Norte,BR3200169,No
8309f882-7178-3593-a692-313c9efdfc99,Brazil,government,32000219,EU MUL FAZENDA LIRIO NUNES,-18.5161,-40.9621,1.0,0,,Municipal,Rural,,,Sudeste,3,Espírito Santo,BR32,Água Doce do Norte,BR3200169,No
0f839942-f5a6-334b-971b-d65581fd1367,Brazil,government,32000227,EU PEDRA BRANCA,-18.5161,-40.9621,1.0,0,,Municipal,Rural,,,Sudeste,3,Espírito Santo,BR32,Água Doce do Norte,BR3200169,No
06686b1a-7d74-3dc9-af4e-b37dfbdc8eef,Brazil,government,32000235,EU VEREADOR ALACY COSTA,-18.5161,-40.9621,1.0,0,,Municipal,Rural,,,Sudeste,3,Espírito Santo,BR32,Água Doce do Norte,BR3200169,No
d9620616-8f47-36af-8ae5-c56d086d7725,Brazil,government,32000243,CRECHE MUL P ADEVANI MARIA BATISTA,-18.5456,-40.9789,1.0,234,No,Municipal,Urban,Yes,5.0,Sudeste,3,Espírito Santo,BR32,Água Doce do Norte,BR3200169,Yes
f01dd406-885a-31d0-8c74-a1f4e229debe,Brazil,government,32000251,EP QUATRO ENCRUZILHADAS,-18.6276,-40.9696,1.0,0,,Municipal,Rural,,,Sudeste,3,Espírito Santo,BR32,Água Doce do Norte,BR3200169,No
e12e34a7-5710-3fd2-92b1-e5a20ecf1069,Brazil,government,32000260,EP SAGRADA FAMILIA,-18.6276,-40.9696,1.0,0,,Municipal,Rural,,,Sudeste,3,Espírito Santo,BR32,Água Doce do Norte,BR3200169,No
294f4f0b-03c5-3ac0-a49f-72db185b90ca,Brazil,government,32000278,EMEIEF ADOLFO ROSA VIEIRA,-18.6346,-40.9399,1.0,304,Yes,Municipal,Urban,No,0.0,Sudeste,3,Espírito Santo,BR32,Água Doce do Norte,BR3200169,Yes
8c6d8047-2177-3134-b8b6-b34fe79029c9,Brazil,government,32000286,EMEIEF SOARES DUTRA,-18.6619,-40.9994,1.0,125,Yes,Municipal,Urban,Yes,2.0,Sudeste,3,Espírito Santo,BR32,Água Doce do Norte,BR3200169,Yes
ef7d2b3e-5071-3268-b40f-d07b05be8267,Brazil,government,32000294,EMUEF CABECEIRA CORREGO DO GARFO,-18.6276,-40.9696,1.0,0,,Municipal,Rural,,,Sudeste,3,Espírito Santo,BR32,Água Doce do Norte,BR3200169,No
57bffac6-560d-3f1e-9de2-e3338c83b1b3,Brazil,government,32000308,EU CORREGO BEIJA FLOR,-18.6276,-40.9696,1.0,0,,Municipal,Rural,,,Sudeste,3,Espírito Santo,BR32,Água Doce do Norte,BR3200169,No
82f9800f-4622-38d3-a7d6-f8c818929204,Brazil,government,32000316,EU CORREGO DA CACHOEIRINHA,-18.6276,-40.9696,1.0,0,,Municipal,Rural,,,Sudeste,3,Espírito Santo,BR32,Água Doce do Norte,BR3200169,No
b229402a-3ce4-3f64-9401-7ca9e8058b4a,Brazil,government,32000324,EU CORREGO DO CAFE,-18.6276,-40.9696,1.0,0,,Municipal,Rural,,,Sudeste,3,Espírito Santo,BR32,Água Doce do Norte,BR3200169,No
49cf5ffc-1a40-3d8d-88b6-3dfc6ab71abd,Brazil,government,32000332,EU FAZENDA BOA FE,-18.6276,-40.9696,1.0,0,,Municipal,Rural,,,Sudeste,3,Espírito Santo,BR32,Água Doce do Norte,BR3200169,No
3df25c32-ad31-3481-b397-355c9371153d,Brazil,government,32000340,EU MUL LINDOLFO DOS SANTOS,-18.6276,-40.9696,1.0,0,,Municipal,Rural,,,Sudeste,3,Espírito Santo,BR32,Água Doce do Norte,BR3200169,No
c3697133-5148-393a-9ee1-fb508269e68f,Brazil,government,32000359,EU MUL MONTES CLAROS,-18.6276,-40.9696,1.0,0,,Municipal,Rural,,,Sudeste,3,Espírito Santo,BR32,Água Doce do Norte,BR3200169,No
d1e554a0-5179-3cbf-a336-1491d6a5e51f,Brazil,government,32000367,EU PLACA DO CORREGO BAIXO,-18.6276,-40.9696,1.0,0,,Municipal,Rural,,,Sudeste,3,Espírito Santo,BR32,Água Doce do Norte,BR3200169,No
5088a41e-6175-3fce-a303-6a1299595df4,Brazil,government,32000375,EU SANTA ROSA,-18.6276,-40.9696,1.0,0,,Municipal,Rural,,,Sudeste,3,Espírito Santo,BR32,Água Doce do Norte,BR3200169,No
d5a0ecfe-c306-34f5-b3a2-4875fd138c83,Brazil,government,32000383,EU SAO JORGE,-18.6276,-40.9696,1.0,0,,Municipal,Rural,,,Sudeste,3,Espírito Santo,BR32,Água Doce do Norte,BR3200169,No
b0a21dc1-0f31-37c5-a602-f881dbe92b0a,Brazil,government,32000391,EU VISTA BELA,-18.6276,-40.9696,1.0,0,,Municipal,Rural,,,Sudeste,3,Espírito Santo,BR32,Água Doce do Norte,BR3200169,No
fb659772-5b84-3a56-be7b-0615d822a4e1,Brazil,government,32000405,EMPPG ANIZIO FILISBINO TEIXEIRA,-18.6276,-40.9696,1.0,0,,Municipal,Urban,,,Sudeste,3,Espírito Santo,BR32,Água Doce do Norte,BR3200169,Yes
c8e78f95-5e4a-3850-8e46-c47d231bd2d6,Brazil,government,32000430,EMPEF CABECEIRA CORREGO AZUL,-18.4233,-41.1532,1.0,0,,Municipal,Rural,,,Sudeste,3,Espírito Santo,BR32,Água Doce do Norte,BR3200169,No
f789b07f-906e-36ea-bb8d-92c9a68a907f,Brazil,government,32000448,EP CAPELA DE SAO PEDRO,-18.4074,-41.0465,1.0,0,,Municipal,Rural,,,Sudeste,3,Espírito Santo,BR32,Água Doce do Norte,BR3200169,No
3cf5472b-9319-3fc2-91fa-a920b4c4cd5b,Brazil,government,32000456,EP MUL SANTO AGOSTINHO,-18.4074,-41.0465,1.0,0,,Municipal,Rural,,,Sudeste,3,Espírito Santo,BR32,Água Doce do Norte,BR3200169,No
ce6be438-c3eb-37fe-8c26-e91912bb6b0d,Brazil,government,32000464,EMPEF PROF JOAO BATISTA,-18.4074,-41.0465,1.0,0,,Municipal,Rural,,,Sudeste,3,Espírito Santo,BR32,Água Doce do Norte,BR3200169,No
c1329d25-a598-3dc8-8062-e2cee5ef2653,Brazil,government,32000480,EEEFM OLEGARIO MARTINS,-18.4168,-41.1236,1.0,123,No,Estadual,Urban,Yes,2.0,Sudeste,3,Espírito Santo,BR32,Água Doce do Norte,BR3200169,Yes
c6e9e11f-461d-3dc5-9f18-cf5d4f93cc2b,Brazil,government,32000499,EEEFM DERMEVAL LEITE RIBEIRO,-18.4163,-41.0317,1.0,226,No,Estadual,Urban,Yes,2.0,Sudeste,3,Espírito Santo,BR32,Água Doce do Norte,BR3200169,Yes
1e490ac7-ff01-37bc-b0ce-f56042625fec,Brazil,government,32000510,EMEIEF PROF MARIA VARGAS DA SILVA,-18.4129,-41.0366,1.0,184,No,Municipal,Urban,Yes,2.0,Sudeste,3,Espírito Santo,BR32,Água Doce do Norte,BR3200169,Yes
0de449f1-95e9-3b02-80ac-4a52875f8116,Brazil,government,32000529,EMEIEF SANTA LUZIA DO AZUL,-18.4183,-41.1227,1.0,131,No,Municipal,Urban,Yes,2.0,Sudeste,3,Espírito Santo,BR32,Água Doce do Norte,BR3200169,Yes
42d30441-2921-3ae7-8a9e-f6436dcc7f36,Brazil,government,32000537,EU CARMEM MIRANDA,-18.4074,-41.0465,1.0,0,,Municipal,Rural,,,Sudeste,3,Espírito Santo,BR32,Água Doce do Norte,BR3200169,No
1be6c709-2ca5-3a2c-afc0-cf9cca1d31e5,Brazil,government,32000545,EU CORREGO DOS ANGELICOS,-18.4074,-41.0465,1.0,0,,Municipal,Rural,,,Sudeste,3,Espírito Santo,BR32,Água Doce do Norte,BR3200169,No
18069830-c328-3a55-996c-f01271850ae4,Brazil,government,32000553,EU CORREGO SANTA ROSA,-18.4074,-41.0465,1.0,0,,Municipal,Rural,,,Sudeste,3,Espírito Santo,BR32,Água Doce do Norte,BR3200169,No
42a3ead6-1221-3042-89e1-2a3853171a96,Brazil,government,32000561,EU MUL JUIZ DISTRITAL ONOFRE CALAIS,-18.4074,-41.0465,1.0,0,,Municipal,Rural,,,Sudeste,3,Espírito Santo,BR32,Água Doce do Norte,BR3200169,No
83ef6927-681b-317e-bf40-ec73dafc5265,Brazil,government,32000570,EU MUL PEDRA AZUL,-18.4074,-41.0465,1.0,0,,Municipal,Rural,,,Sudeste,3,Espírito Santo,BR32,Água Doce do Norte,BR3200169,No
a3d9503d-6c1c-3314-b4fc-7eddc662c9fd,Brazil,government,32000588,EMEIEF JOSE MARQUES DA ROCHA,-18.4315,-40.9847,1.0,88,No,Municipal,Urban,Yes,2.0,Sudeste,3,Espírito Santo,BR32,Água Doce do Norte,BR3200169,Yes
816529e1-59ee-3964-b837-3de1c5acd666,Brazil,government,32000596,EMEIEF VILA NELITA,-18.4767,-41.0148,1.0,146,Yes,Municipal,Urban,Yes,5.0,Sudeste,3,Espírito Santo,BR32,Água Doce do Norte,BR3200169,Yes
271e035c-4eac-3809-8273-b8f4a7d65cd6,Brazil,government,32000618,EMPPG SEBASTIAO C SOUZA,-18.4512,-40.9878,1.0,0,,Municipal,Rural,,,Sudeste,3,Espírito Santo,BR32,Água Doce do Norte,BR3200169,No
c4274d75-6c33-3f0a-9f2d-24d951a659b3,Brazil,government,32000626,EU BARRA BOM DESTINO,-18.4512,-40.9878,1.0,0,,Municipal,Rural,,,Sudeste,3,Espírito Santo,BR32,Água Doce do Norte,BR3200169,No
df1dd262-cec1-3ae3-b038-fe1d116150ca,Brazil,government,32000634,EU MUL ANTONIO ROAS HUEBRA,-18.4512,-40.9878,1.0,0,,Municipal,Rural,,,Sudeste,3,Espírito Santo,BR32,Água Doce do Norte,BR3200169,No
0ab63c92-0d57-3727-9796-4ed5599ff7b2,Brazil,government,32000642,EU MUL CORREGO BOM DESTINO,-18.4512,-40.9878,1.0,0,,Municipal,Rural,,,Sudeste,3,Espírito Santo,BR32,Água Doce do Norte,BR3200169,No
9c34deb1-f4e3-3adc-8540-f6cd476cdf27,Brazil,government,32000650,EU PROF MARIA VARGAS SILVA,-18.4512,-40.9878,1.0,0,,Municipal,Rural,,,Sudeste,3,Espírito Santo,BR32,Água Doce do Norte,BR3200169,No
b9eb3c21-3e7a-37ca-9e81-0feb34d893b4,Brazil,government,32000715,EM VARGEM ALEGRE,-18.8072,-40.8525,1.0,32,No,Municipal,Urban,Yes,5.0,Sudeste,3,Espírito Santo,BR32,Barra de São Francisco,BR3200904,Yes
eafd2ceb-1b51-3006-8fc9-366797c2e779,Brazil,government,32000731,EM ERASMO BRAGA,-18.7585,-40.8935,1.0,332,Yes,Municipal,Urban,Yes,5.0,Sudeste,3,Espírito Santo,BR32,Barra de São Francisco,BR3200904,Yes
7f3dddb6-2be8-3126-8ab1-a90b3a6b584f,Brazil,government,32000766,EEPEF CORREGO BOA SORTE,-18.7445,-40.878,0.94,0,,Estadual,Rural,,,Sudeste,3,Espírito Santo,BR32,Barra de São Francisco,BR3200904,No
65e5b9ed-f6e5-393c-b90c-360bce11f339,Brazil,government,32000774,EM CORREGO AREIA BRANCA,-18.7445,-40.878,0.94,0,,Municipal,Rural,,,Sudeste,3,Espírito Santo,BR32,Barra de São Francisco,BR3200904,No
3010f25d-5614-39a3-b0cf-09b7074ec110,Brazil,government,32000804,EM FAZENDA BARBOSA,-18.8243,-40.8494,1.0,14,No,Municipal,Rural,No,0.0,Sudeste,3,Espírito Santo,BR32,Barra de São Francisco,BR3200904,No
e129c508-b3c5-37b4-a9bd-6f4bcd03f36b,Brazil,government,32000812,EM MOACIR CHAVES,-18.7445,-40.878,0.94,0,,Municipal,Rural,,,Sudeste,3,Espírito Santo,BR32,Barra de São Francisco,BR3200904,No
3030a534-3c70-34f3-966b-30b8e4571a48,Brazil,government,32000847,EM MAC NAIR,-18.7542,-40.8912,1.0,254,Yes,Municipal,Urban,Yes,5.0,Sudeste,3,Espírito Santo,BR32,Barra de São Francisco,BR3200904,Yes
5726873a-48a9-32df-a254-cc7d105a42c7,Brazil,government,32000855,EM VICENTE AMARO DA SILVA,-18.7547,-40.8972,1.0,723,Yes,Municipal,Urban,Yes,5.0,Sudeste,3,Espírito Santo,BR32,Barra de São Francisco,BR3200904,Yes
9b828004-3647-3063-b197-e86e284e7205,Brazil,government,32000898,EM JOAO BASTOS,-18.7541,-40.8908,1.0,803,No,Municipal,Urban,Yes,5.0,Sudeste,3,Espírito Santo,BR32,Barra de São Francisco,BR3200904,Yes
8392706f-cd30-326e-b8f2-2547e9dc4705,Brazil,government,32000901,EM JOSE FRANCISCO DA FONSECA,-18.7594,-40.885,0.94,307,Yes,Municipal,Urban,Yes,5.0,Sudeste,3,Espírito Santo,BR32,Barra de São Francisco,BR3200904,Yes
16e91efc-08dd-3991-8b8b-4767c6eff1e9,Brazil,government,32000928,EEEF VARGEM ALEGRE,-18.8073,-40.8524,1.0,142,No,Estadual,Urban,Yes,5.0,Sudeste,3,Espírito Santo,BR32,Barra de São Francisco,BR3200904,Yes
abf63d6a-b964-3bce-b5a1-99a61e89c076,Brazil,government,32000952,EM NEUZA FERNANDES DA SILVA,-18.7626,-40.8933,1.0,160,Yes,Municipal,Urban,Yes,5.0,Sudeste,3,Espírito Santo,BR32,Barra de São Francisco,BR3200904,Yes
f490d7db-e22d-32fd-be86-8bdfdcfb1fb7,Brazil,government,32000979,EEEFM GOVERNADOR LINDENBERG,-18.7497,-40.8937,1.0,1164,Yes,Estadual,Urban,Yes,5.0,Sudeste,3,Espírito Santo,BR32,Barra de São Francisco,BR3200904,Yes
50c2f3e5-7c8e-3868-86bb-0a2c2e6ff417,Brazil,government,32000987,CEEMTI JOAO XXIII,-18.756,-40.8981,0.94,529,Yes,Estadual,Urban,Yes,5.0,Sudeste,3,Espírito Santo,BR32,Barra de São Francisco,BR3200904,Yes
c3277949-c79b-3245-99af-264b2aac747e,Brazil,government,32001169,EM FAZENDA GERALDO COZZER,-18.7852,-40.8308,1.0,4,No,Municipal,Rural,No,0.0,Sudeste,3,Espírito Santo,BR32,Barra de São Francisco,BR3200904,No
12c6bc1e-4c55-34b7-8137-6b5d8cb39bb9,Brazil,government,32001380,EEPEF CORREGO DO FERVEDOURO,-18.8652,-40.8762,1.0,7,No,Estadual,Rural,No,0.0,Sudeste,3,Espírito Santo,BR32,Barra de São Francisco,BR3200904,No
befe3a81-2f60-3b19-a3f9-9442cc2842e7,Brazil,government,32001398,EM FAZENDA ITAUNAS,-18.857,-40.9341,0.94,0,,Municipal,Rural,,,Sudeste,3,Espírito Santo,BR32,Barra de São Francisco,BR3200904,No
4fb19cea-7235-3d22-a4e9-2d7f83a95d8c,Brazil,government,32001401,EM VARGEM GRANDE DE ITAUNAS,-18.8438,-40.891,0.94,52,No,Municipal,Rural,No,0.0,Sudeste,3,Espírito Santo,BR32,Barra de São Francisco,BR3200904,No
1f036049-4c3b-3fb7-9d8e-b432e60d0838,Brazil,government,32001410,EM CACHOEIRINHA DO ITAUNAS,-18.8743,-40.9307,1.0,255,Yes,Municipal,Urban,Yes,2.0,Sudeste,3,Espírito Santo,BR32,Barra de São Francisco,BR3200904,Yes
d16b41a8-5f38-3ba4-bfba-0c4cd4e72895,Brazil,government,32001452,EEUEF ITAUNINHAS - BARRA DE SAO FRANCISCO,-18.8776,-40.8927,1.0,5,No,Estadual,Rural,No,0.0,Sudeste,3,Espírito Santo,BR32,Barra de São Francisco,BR3200904,No
c3412a12-5240-387e-b0b1-2395af5c8e39,Brazil,government,32001509,EM SANTA TOZZI DE PALMA,-18.7418,-40.7458,1.0,0,,Municipal,Rural,,,Sudeste,3,Espírito Santo,BR32,Barra de São Francisco,BR3200904,No
c4dcaf25-bdf9-3999-a13d-85d5f2ca569a,Brazil,government,32001517,EM BARRA DE ITAPERUNA,-18.7091,-40.7397,1.0,121,No,Municipal,Urban,No,0.0,Sudeste,3,Espírito Santo,BR32,Barra de São Francisco,BR3200904,Yes
0c94d28d-8d0c-364c-af8c-06b99d8c0a45,Brazil,government,32001533,EEUEF BARRA DA FORTALEZA,-18.7418,-40.7458,1.0,0,,Estadual,Rural,,,Sudeste,3,Espírito Santo,BR32,Barra de São Francisco,BR3200904,No
7b7b5065-2f4f-371a-be4c-ab1c86f12805,Brazil,government,32001541,EEUEF BOA ESPERANCA - BARRA DE SAO FRANCISCO,-18.7418,-40.7458,0.67,6,No,Estadual,Rural,No,0.0,Sudeste,3,Espírito Santo,BR32,Barra de São Francisco,BR3200904,No
c22cdcfb-aad1-3fc9-8a53-3d8555f5a295,Brazil,government,32001576,EM OTTO SAAR,-18.6615,-40.8664,1.0,108,No,Municipal,Rural,Yes,5.0,Sudeste,3,Espírito Santo,BR32,Barra de São Francisco,BR3200904,Yes
9ee540d2-343d-31d8-97c1-3c1c0d9d80dc,Brazil,government,32001584,EM SANTA ANGELICA,-18.6413,-40.8889,1.0,50,No,Municipal,Rural,No,0.0,Sudeste,3,Espírito Santo,BR32,Barra de São Francisco,BR3200904,No
90b6883e-873c-3af4-a5d5-490118a4d2c7,Brazil,government,32001592,EEEF ITA,-18.6281,-40.869,0.94,88,No,Estadual,Rural,No,0.0,Sudeste,3,Espírito Santo,BR32,Barra de São Francisco,BR3200904,No
df478ab3-cb12-316e-983b-3b8493e629fe,Brazil,government,32001606,EEEFM ALADIM SILVESTRE DE ALMEIDA,-18.5854,-40.8871,1.0,243,Yes,Estadual,Urban,Yes,5.0,Sudeste,3,Espírito Santo,BR32,Barra de São Francisco,BR3200904,Yes
b497f619-9646-355d-9ee4-000700465134,Brazil,government,32001649,EEUEF BARRA DA CAMBEVA,-18.7445,-40.878,0.94,0,,Estadual,Rural,,,Sudeste,3,Espírito Santo,BR32,Barra de São Francisco,BR3200904,No
74b4db52-6278-3728-8aa9-aacc2e8f144a,Brazil,government,32001657,EEUEF BARRA DA PIPOCA,-18.7445,-40.878,0.94,0,,Estadual,Rural,,,Sudeste,3,Espírito Santo,BR32,Barra de São Francisco,BR3200904,No
0dd90077-b0f3-33de-a812-7888c6474991,Brazil,government,32001681,EEUEF CORREGO DO AVENTUREIRO,-18.5666,-40.888,0.94,0,,Estadual,Rural,,,Sudeste,3,Espírito Santo,BR32,Barra de São Francisco,BR3200904,No
b5ceb469-8688-39da-b022-f7da4ef4db5e,Brazil,government,32001711,EEUEF CORREGO DOS FAGUNDES,-18.4744,-40.8966,1.0,9,No,Estadual,Rural,No,0.0,Sudeste,3,Espírito Santo,BR32,Barra de São Francisco,BR3200904,No
3bed9f08-770f-3397-b58a-edb48a98ce12,Brazil,government,32001754,EEUEF FAZENDA BARRA ALEGRE,-18.5012,-40.88,0.89,16,No,Estadual,Rural,No,0.0,Sudeste,3,Espírito Santo,BR32,Barra de São Francisco,BR3200904,No
a405f405-133b-36ed-a00c-5cc3c3feee44,Brazil,government,32001770,EM GALVAO MARTINS,-18.5666,-40.888,0.94,0,,Municipal,Rural,,,Sudeste,3,Espírito Santo,BR32,Barra de São Francisco,BR3200904,No
0541f671-acfc-34f9-a36d-b97c11303bca,Brazil,government,32001789,EEUEF FAZENDA JOSE LINO,-18.4612,-40.8909,1.0,6,No,Estadual,Rural,No,0.0,Sudeste,3,Espírito Santo,BR32,Barra de São Francisco,BR3200904,No
36fe9bf4-94f6-3887-997c-e42f4dc5dbc6,Brazil,government,32001819,EM DANIEL CIRILO DE PAULA,-18.5103,-40.7736,1.0,13,No,Municipal,Rural,Yes,5.0,Sudeste,3,Espírito Santo,BR32,Barra de São Francisco,BR3200904,Yes
d2c14b36-ba16-36dd-b6d1-2779738ec195,Brazil,government,32001835,EM ALTO PAULISTA,-18.6318,-40.8095,1.0,51,No,Municipal,Rural,No,0.0,Sudeste,3,Espírito Santo,BR32,Barra de São Francisco,BR3200904,No
b0a04e74-5e92-3609-96e9-71e4b1ee95e3,Brazil,government,32001886,EM ALEXANDRINA DE ALMEIDA CASTRO,-18.5866,-40.775,0.94,0,,Municipal,Rural,,,Sudeste,3,Espírito Santo,BR32,Barra de São Francisco,BR3200904,No
9195cd39-20bd-3382-82af-0183946ebce4,Brazil,government,32001894,EM CORREGO DO ENGENHO,-18.641,-40.8339,0.94,46,No,Municipal,Rural,No,0.0,Sudeste,3,Espírito Santo,BR32,Barra de São Francisco,BR3200904,No
2591dc42-2e9b-327b-9a88-df692285aca6,Brazil,government,32001908,EEEF ANTONIO CIRILO,-18.5107,-40.7734,1.0,111,No,Estadual,Rural,Yes,5.0,Sudeste,3,Espírito Santo,BR32,Barra de São Francisco,BR3200904,Yes
f1f67fb6-7165-3f01-be03-a4d84e6ca508,Brazil,government,32001916,EEEFM PROF ASCENDINA FEITOSA,-18.6638,-40.7956,1.0,369,Yes,Estadual,Urban,Yes,5.0,Sudeste,3,Espírito Santo,BR32,Barra de São Francisco,BR3200904,Yes
81a8995b-e146-34b4-b44a-9b33e4266560,Brazil,government,32001959,EEUEF BARRA DO ALECRIM,-18.5866,-40.775,0.94,0,,Estadual,Rural,,,Sudeste,3,Espírito Santo,BR32,Barra de São Francisco,BR3200904,No
8d4f66ca-ef45-36b1-8dc4-8ab94209262d,Brazil,government,32001983,EEUEF CORREGO DA FERRUGEM,-18.5866,-40.775,0.94,0,,Estadual,Rural,,,Sudeste,3,Espírito Santo,BR32,Barra de São Francisco,BR3200904,No
8a364bd2-bd6f-3f8e-8383-31bffab2ac2e,Brazil,government,32002165,EM CORREGO DO BAIANO,-18.5866,-40.775,0.94,0,,Municipal,Rural,,,Sudeste,3,Espírito Santo,BR32,Barra de São Francisco,BR3200904,No
b8d15c68-e9c0-3a89-8724-dd2bc4e1cffd,Brazil,government,32002211,CMEI BRASILINO MALAQUIAS DE MORAIS,-18.7626,-40.8928,1.0,115,No,Municipal,Urban,Yes,2.0,Sudeste,3,Espírito Santo,BR32,Barra de São Francisco,BR3200904,Yes
f515ac75-36f0-3c07-9fc4-197ef5d1f2cc,Brazil,government,32002262,EM PORANGA,-18.5841,-40.8623,1.0,46,No,Municipal,Rural,No,0.0,Sudeste,3,Espírito Santo,BR32,Barra de São Francisco,BR3200904,Yes
a505465e-e3e7-30a2-9c37-81fb5fb5537e,Brazil,government,32002300,EM FAZENDA HONORIO,-18.5304,-40.8587,1.0,0,,Municipal,Rural,,,Sudeste,3,Espírito Santo,BR32,Barra de São Francisco,BR3200904,No
4828ac5f-1323-3659-b3c8-ae4bd1265d04,Brazil,government,32002360,EM BOA UNIAO,-18.7428,-40.792,0.94,0,,Municipal,Rural,,,Sudeste,3,Espírito Santo,BR32,Barra de São Francisco,BR3200904,No
f3e1e5ce-3e7b-3aa0-be85-1d0eaabc70e4,Brazil,government,32002378,EM CABECEIRA SANTO ANTONIO,-18.8085,-40.7981,1.0,22,No,Municipal,Rural,No,0.0,Sudeste,3,Espírito Santo,BR32,Barra de São Francisco,BR3200904,No
81a2e80c-4ae9-30b9-82d8-eb37d04714c3,Brazil,government,32002394,EM GERMANO WOLFGRAN,-18.7428,-40.792,0.94,0,,Municipal,Rural,,,Sudeste,3,Espírito Santo,BR32,Barra de São Francisco,BR3200904,No
ba7ad514-01c9-347d-8773-1421da116af7,Brazil,government,32002408,EEEF FRANCISCO LOURENCO ANDRADE,-18.8375,-40.7813,1.0,88,No,Estadual,Rural,Yes,5.0,Sudeste,3,Espírito Santo,BR32,Barra de São Francisco,BR3200904,Yes
8eb77a99-e86c-3a40-824c-ce285d3acaca,Brazil,government,32002416,EM SANTO ANTONIO,-18.7566,-40.8058,1.0,253,No,Municipal,Urban,No,0.0,Sudeste,3,Espírito Santo,BR32,Barra de São Francisco,BR3200904,Yes
4d7f5e26-bb40-3d36-b4c3-f2d995001c36,Brazil,government,32002459,ESCOLA MUNICIPAL FAMILIA AGRICOLA NORMILIA CUNHA DOS SANTOS,-18.7772,-40.8229,1.0,153,Yes,Municipal,Rural,Yes,5.0,Sudeste,3,Espírito Santo,BR32,Barra de São Francisco,BR3200904,Yes
cc8b50c0-9a84-3a6d-b7e0-69085e1d8d58,Brazil,government,32002475,EEUEF CABECEIRA CORREGO SAO PAULO,-18.7445,-40.878,0.94,0,,Estadual,Rural,,,Sudeste,3,Espírito Santo,BR32,Barra de São Francisco,BR3200904,No
be74f266-3073-35ba-82ac-bd9f11867a64,Brazil,government,32002602,EMEIEF PALMEIRAS,-18.4317,-40.7813,1.0,131,Yes,Municipal,Rural,Yes,5.0,Sudeste,3,Espírito Santo,BR32,Ecoporanga,BR3202108,Yes
530aad3a-7877-3207-a2cb-d7edda83ac13,Brazil,government,32002874,EMPEF CORREGO DO DOIS,-18.4044,-40.8891,1.0,17,Yes,Municipal,Rural,No,0.0,Sudeste,3,Espírito Santo,BR32,Ecoporanga,BR3202108,No
be971d94-bbaa-33ee-94b6-53f10388639c,Brazil,government,32002882,EMUEF CORREGO DO PARAISO,-18.4456,-40.8292,1.0,11,No,Municipal,Rural,No,0.0,Sudeste,3,Espírito Santo,BR32,Ecoporanga,BR3202108,No
685945ba-c290-3459-9120-0f2a156a3af4,Brazil,government,32002904,EMUEF MURITIBA,-18.0881,-40.7754,1.0,16,Yes,Municipal,Rural,No,0.0,Sudeste,3,Espírito Santo,BR32,Ecoporanga,BR3202108,No
b2504146-68ed-3e22-8ee5-6ec55409af8e,Brazil,government,32002912,EMUEF PATRIMONIO SANTA RITA,-18.3093,-40.9192,0.67,13,No,Municipal,Rural,No,0.0,Sudeste,3,Espírito Santo,BR32,Ecoporanga,BR3202108,No
9403a194-2926-3021-9e79-544db11eed29,Brazil,government,32002920,EMUEF RIBEIRAOZINHO,-18.2159,-40.8576,1.0,16,No,Municipal,Rural,No,0.0,Sudeste,3,Espírito Santo,BR32,Ecoporanga,BR3202108,No
99f926cf-55c1-3f47-9891-ae39240e1fd8,Brazil,government,32002939,CEEFMTI DANIEL COMBONI,-18.369,-40.8298,0.94,440,Yes,Estadual,Urban,Yes,5.0,Sudeste,3,Espírito Santo,BR32,Ecoporanga,BR3202108,Yes
a11e8a98-6251-317e-a40b-9d67bbccee00,Brazil,government,32002947,EMEF DR BOLIVAR DE ABREU,-18.3752,-40.8308,1.0,445,Yes,Municipal,Urban,Yes,5.0,Sudeste,3,Espírito Santo,BR32,Ecoporanga,BR3202108,Yes
7831b3eb-93b7-310f-b06f-efe56340be7a,Brazil,government,32002955,EMEIEF JOSE FRANCISCO DE OLIVEIRA,-18.3856,-40.8282,1.0,367,Yes,Municipal,Urban,Yes,5.0,Sudeste,3,Espírito Santo,BR32,Ecoporanga,BR3202108,Yes
140d349b-547c-366f-ab3f-104321089ef8,Brazil,government,32002971,EEEF PATRIMONIO PRATA DOS BAIANOS,-18.3399,-41.0053,1.0,91,Yes,Estadual,Urban,Yes,2.0,Sudeste,3,Espírito Santo,BR32,Ecoporanga,BR3202108,Yes
d70cd46b-8adf-3fc2-a0e0-a6e578d8e764,Brazil,government,32002980,EMEF PROF BENEDITA MONTEIRO,-18.3682,-40.8358,1.0,310,Yes,Municipal,Urban,Yes,5.0,Sudeste,3,Espírito Santo,BR32,Ecoporanga,BR3202108,Yes
5b12f12e-41c0-37a8-9cbf-11861f9dd57a,Brazil,government,32002998,EEEF SANTA TEREZINHA,-18.4926,-40.8116,1.0,165,No,Estadual,Urban,Yes,2.0,Sudeste,3,Espírito Santo,BR32,Ecoporanga,BR3202108,Yes
36e7a82c-36d4-337d-b335-8c6f13d1be22,Brazil,government,32003005,EEEFM ECOPORANGA,-18.3725,-40.8346,1.0,1252,Yes,Estadual,Urban,Yes,5.0,Sudeste,3,Espírito Santo,BR32,Ecoporanga,BR3202108,Yes
96df9de7-df41-368f-b276-fb4afef74057,Brazil,government,32003315,CMEI EBER TEIXEIRA FIGUEIREDO,-18.3732,-40.8273,1.0,74,No,Municipal,Urban,Yes,5.0,Sudeste,3,Espírito Santo,BR32,Ecoporanga,BR3202108,Yes
7ce3dfd1-333d-3f78-8b90-d5c155ba30e9,Brazil,government,32003323,CMEI GENTE MIUDA,-18.3374,-41.003,0.94,21,No,Municipal,Urban,No,0.0,Sudeste,3,Espírito Santo,BR32,Ecoporanga,BR3202108,No
3f33d1bd-fd57-3ae0-be8a-8b6932ddc3fc,Brazil,government,32003331,CMEI NOSSA SENHORA APARECIDA,-18.368,-40.8366,0.94,142,No,Municipal,Urban,Yes,5.0,Sudeste,3,Espírito Santo,BR32,Ecoporanga,BR3202108,Yes
ab039e32-dd6a-3b97-9da1-c8a301a5423c,Brazil,government,32003340,CMEI PINGO DE GENTE,-18.0882,-40.7753,1.0,8,No,Municipal,Rural,No,0.0,Sudeste,3,Espírito Santo,BR32,Ecoporanga,BR3202108,No
ce6c9d83-06d4-3b25-b6d8-bacb975f3bcd,Brazil,government,32003358,CMEI SR WALDEMAR FIANCO,-18.2159,-40.8577,1.0,7,No,Municipal,Rural,No,0.0,Sudeste,3,Espírito Santo,BR32,Ecoporanga,BR3202108,No
2a236dd8-13b7-384b-b1a0-d3efc4b249b6,Brazil,government,32003366,CMEI PROF,-18.4934,-40.811,0.94,14,No,Municipal,Urban,No,0.0,Sudeste,3,Espírito Santo,BR32,Ecoporanga,BR3202108,No
de81e4ab-5d31-3d31-9891-706a8b47141d,Brazil,government,32003374,CMEI PROF,-18.3093,-40.9192,0.67,15,No,Municipal,Rural,No,0.0,Sudeste,3,Espírito Santo,BR32,Ecoporanga,BR3202108,No
4ef91988-26a0-3860-8e65-824cf7edb265,Brazil,government,32003463,EMUEF FAZENDA DINO FERREIRA,-18.1553,-40.7379,1.0,0,,Municipal,Rural,,,Sudeste,3,Espírito Santo,BR32,Ecoporanga,BR3202108,No
696be3a3-131f-3d06-a35a-38c42f8e58e2,Brazil,government,32003471,EEUEF FAZENDA SANTOS,-18.1553,-40.7379,1.0,0,,Estadual,Rural,,,Sudeste,3,Espírito Santo,BR32,Ecoporanga,BR3202108,No
171dcb80-dcca-3140-881c-6c16eaf688ce,Brazil,government,32003498,EEEF COTAXE,-18.1823,-40.7171,1.0,105,Yes,Estadual,Urban,Yes,5.0,Sudeste,3,Espírito Santo,BR32,Ecoporanga,BR3202108,Yes
d721e9ef-d96b-3810-8c38-9899c2190cff,Brazil,government,32003510,EMUEF FAZENDA MINERVA,-18.1553,-40.7379,1.0,0,,Municipal,Rural,,,Sudeste,3,Espírito Santo,BR32,Ecoporanga,BR3202108,No
7e5e0989-2fa5-35a0-94be-284dff2d20e1,Brazil,government,32003544,EMUEF SAO GERALDO,-18.2344,-40.7881,1.0,6,No,Municipal,Rural,No,0.0,Sudeste,3,Espírito Santo,BR32,Ecoporanga,BR3202108,No
4b1ec82e-aa15-3975-87b0-93e70658bae4,Brazil,government,32003552,CMEI JARDIM ENCANTADO,-18.3727,-40.8294,1.0,397,Yes,Municipal,Urban,Yes,5.0,Sudeste,3,Espírito Santo,BR32,Ecoporanga,BR3202108,Yes
6d72a108-e49a-3048-91f6-d0ab2aaaa962,Brazil,government,32003560,CMEI PREF DELIO R CORREA,-18.1854,-40.7161,1.0,44,No,Municipal,Urban,No,0.0,Sudeste,3,Espírito Santo,BR32,Ecoporanga,BR3202108,No
064a8c11-f61e-3652-a252-6fa50bc2e047,Brazil,government,32003595,EEEFM JOSE TEIXEIRA FIALHO,-18.2833,-40.7063,1.0,213,Yes,Estadual,Urban,Yes,5.0,Sudeste,3,Espírito Santo,BR32,Ecoporanga,BR3202108,Yes
d585c231-a80c-3ee2-bbfc-eac752a3e07c,Brazil,government,32003625,EMUEF CORREGO DA FACA,-18.2677,-40.6962,1.0,0,,Municipal,Rural,,,Sudeste,3,Espírito Santo,BR32,Ecoporanga,BR3202108,No
9e138e24-832f-3578-86b9-04075930efef,Brazil,government,32003668,EMUEF CORREGO DA JACUTINGA,-18.4127,-40.6595,0.67,8,No,Municipal,Rural,No,0.0,Sudeste,3,Espírito Santo,BR32,Ecoporanga,BR3202108,No
01cde0e2-ac6c-3b61-8937-b9012a15e0f1,Brazil,government,32003773,EMUEF PATRIMONIO DE ITAPEBA,-18.3236,-40.6358,1.0,0,,Municipal,Rural,,,Sudeste,3,Espírito Santo,BR32,Ecoporanga,BR3202108,No
c4699212-81eb-3ade-8f14-de20e8e8ba83,Brazil,government,32003781,EMUEF VALE DO OURO,-18.4127,-40.6595,0.67,18,No,Municipal,Rural,No,0.0,Sudeste,3,Espírito Santo,BR32,Ecoporanga,BR3202108,No
fcb7063f-38f6-32e5-b5ed-20b927f0480a,Brazil,government,32003790,EEEFM DE JOASSUBA SR ANTONIO PATRICIO DE FONTOURA,-18.3735,-40.8321,1.0,322,Yes,Estadual,Urban,Yes,5.0,Sudeste,3,Espírito Santo,BR32,Ecoporanga,BR3202108,Yes
968e3b14-3c7c-375c-8b66-a20b095fdf33,Brazil,government,32003820,CMEI CASINHA FELIZ,-18.4054,-40.6856,1.0,53,No,Municipal,Urban,Yes,5.0,Sudeste,3,Espírito Santo,BR32,Ecoporanga,BR3202108,Yes
56af8a2a-4711-38ec-af89-a2ebfaf98344,Brazil,government,32003862,EMUEF CORREGO DOS BARBOSAS,-18.276,-41.1183,0.61,14,No,Municipal,Rural,No,0.0,Sudeste,3,Espírito Santo,BR32,Ecoporanga,BR3202108,No
718373ce-eae5-3c9f-8a4c-244e8f530fff,Brazil,government,32003889,EMUEF FAZENDA TEIXEIRA,-18.3043,-41.0517,1.0,0,,Municipal,Rural,,,Sudeste,3,Espírito Santo,BR32,Ecoporanga,BR3202108,No
ac569086-17a3-3cec-8eb2-1e653ca213de,Brazil,government,32003960,EMUEF FAZENDA VALDOMIRO L DE FREITAS,-18.3043,-41.0517,1.0,0,,Municipal,Rural,,,Sudeste,3,Espírito Santo,BR32,Ecoporanga,BR3202108,No
776a428f-f20b-3fa8-acc3-fa90eba172a1,Brazil,government,32004001,EMEIEF SANTA LUZIA DO NORTE,-18.2033,-40.605,0.94,68,Yes,Municipal,Urban,Yes,5.0,Sudeste,3,Espírito Santo,BR32,Ecoporanga,BR3202108,Yes
fa0dc9bb-3f0f-39ef-b00b-57e9dbf1b14b,Brazil,government,32004036,CEMEI PEQUENO PRINCIPE,-18.8585,-41.1224,1.0,257,No,Municipal,Urban,Yes,5.0,Sudeste,3,Espírito Santo,BR32,Mantenópolis,BR3203304,Yes
768f9050-0252-3de7-9fca-2d5a5c1f93e2,Brazil,government,32004257,EP CORREGO MANTENINHA,-18.8462,-41.1259,1.0,0,,Municipal,Rural,,,Sudeste,3,Espírito Santo,BR32,Mantenópolis,BR3203304,No
aeff5246-afa8-3ad9-8eb4-d534c06af928,Brazil,government,32004265,EP MUL FAZENDA DAS FLORES,-18.8462,-41.1259,1.0,0,,Municipal,Rural,,,Sudeste,3,Espírito Santo,BR32,Mantenópolis,BR3203304,No
74ceebd0-793a-39d5-b1e9-92b7e36e45d4,Brazil,government,32004273,EEEFM CHRISTIANO DIAS LOPES,-18.865,-41.1251,0.94,449,Yes,Estadual,Urban,Yes,5.0,Sudeste,3,Espírito Santo,BR32,Mantenópolis,BR3203304,Yes
15b9c0aa-eda4-30e3-bd98-0050ea25ae44,Brazil,government,32004281,EM LUIZ SIMAO,-18.8936,-41.0778,1.0,429,Yes,Municipal,Urban,Yes,2.0,Sudeste,3,Espírito Santo,BR32,Mantenópolis,BR3203304,Yes
35bb46ef-66f1-3070-bf7e-e0b1befea950,Brazil,government,32004290,EM PROFESSORA ADELINA LIRIO,-18.8594,-41.1228,1.0,399,Yes,Municipal,Urban,Yes,2.0,Sudeste,3,Espírito Santo,BR32,Mantenópolis,BR3203304,Yes
1c7c59ab-1604-362d-b338-bf95cebe809c,Brazil,government,32004303,EEEFM JOB PIMENTEL,-18.86,-41.1196,0.89,336,Yes,Estadual,Urban,Yes,5.0,Sudeste,3,Espírito Santo,BR32,Mantenópolis,BR3203304,Yes
9c708f63-9b26-3291-a775-4ba132d2feba,Brazil,government,32004362,EU BARRA DO CAPIM,-18.9075,-41.0704,1.0,0,,Municipal,Rural,,,Sudeste,3,Espírito Santo,BR32,Mantenópolis,BR3203304,No
9fdb3d75-777e-3aab-b1bf-d94bc2ef5625,Brazil,government,32004389,EU FAZENDA IRMAOS PROEZAS,-18.8462,-41.1259,1.0,0,,Municipal,Rural,,,Sudeste,3,Espírito Santo,BR32,Mantenópolis,BR3203304,No
5c8c0854-102f-31a7-902f-5658a8249bad,Brazil,government,32004397,EU FAZENDA JOAO NUNES,-18.8462,-41.1259,1.0,0,,Municipal,Rural,,,Sudeste,3,Espírito Santo,BR32,Mantenópolis,BR3203304,No
eac832ff-49b9-3707-a99d-b940b177e931,Brazil,government,32004427,EU MUL GRANJA MARICELIA,-18.8462,-41.1259,1.0,0,,Municipal,Rural,,,Sudeste,3,Espírito Santo,BR32,Mantenópolis,BR3203304,No
08b46c1b-dfe2-36ed-b47d-06b78e4ad024,Brazil,government,32004443,EU MUL SANTA LUZIA DO CORREGO AZUL,-18.8462,-41.1259,1.0,0,,Municipal,Rural,,,Sudeste,3,Espírito Santo,BR32,Mantenópolis,BR3203304,No
86553ea8-85c3-3f36-921f-82f36b57863e,Brazil,government,32004460,EU WILLIAN GABRIEL BENJAMIN,-18.9135,-41.0769,1.0,0,,Municipal,Rural,,,Sudeste,3,Espírito Santo,BR32,Mantenópolis,BR3203304,No
d0d679be-3e40-3266-9c82-527a1f2fee5c,Brazil,government,32004494,EP ANTONIO JOSE DE ALMEIDA,-18.8987,-40.9847,1.0,0,,Municipal,Rural,,,Sudeste,3,Espírito Santo,BR32,Mantenópolis,BR3203304,No
14323d27-7ff0-39d4-9a15-2b1913c6cfbd,Brazil,government,32004508,EP ATILIO VENTURIM,-18.8987,-40.9847,1.0,0,,Municipal,Rural,,,Sudeste,3,Espírito Santo,BR32,Mantenópolis,BR3203304,No
73962e3c-1021-321e-954d-624499de9d67,Brazil,government,32004516,EP DOLORES PEREIRA DE OLIVEIRA,-18.8987,-40.9847,1.0,0,,Municipal,Rural,,,Sudeste,3,Espírito Santo,BR32,Mantenópolis,BR3203304,No
f71d5291-fa33-3eec-9523-953fe2635616,Brazil,government,32004524,EP FAZENDA VALENTE,-18.8987,-40.9847,1.0,0,,Municipal,Rural,,,Sudeste,3,Espírito Santo,BR32,Mantenópolis,BR3203304,No
7cd446bb-a116-3bc7-936d-f92dd75e3100,Brazil,government,32004532,EEEFM PALMERINDO VIEIRA CAMPOS,-18.889,-41.0158,0.94,172,Yes,Estadual,Urban,Yes,5.0,Sudeste,3,Espírito Santo,BR32,Mantenópolis,BR3203304,Yes
a562d250-2bb8-3d21-bb82-eb04897fa4b9,Brazil,government,32004540,EU ALTO AREJADO,-18.8987,-40.9847,1.0,0,,Municipal,Rural,,,Sudeste,3,Espírito Santo,BR32,Mantenópolis,BR3203304,No
551681ac-2535-37ab-809c-586a39e4f01b,Brazil,government,32004559,EU MUL ALTO SAO FRANCISCO,-18.8987,-40.9847,1.0,0,,Municipal,Rural,,,Sudeste,3,Espírito Santo,BR32,Mantenópolis,BR3203304,No
5b266ee4-69a9-3aa9-9ff4-bc761a11432e,Brazil,government,32004567,EP ANTONIO DA SILVA,-18.8987,-40.9847,1.0,0,,Municipal,Rural,,,Sudeste,3,Espírito Santo,BR32,Mantenópolis,BR3203304,No
4a81fe58-c430-3f1e-ad8e-434e1bf90847,Brazil,government,32004575,EU BALDOINO DE ABREU,-18.8987,-40.9847,1.0,0,,Municipal,Rural,,,Sudeste,3,Espírito Santo,BR32,Mantenópolis,BR3203304,No
6e2b983f-81da-3bb8-ba6d-6f774b7b4ea6,Brazil,government,32004591,EP CABECEIRA DO CORREGO FRIO,-18.9075,-41.0704,0.67,9,No,Municipal,Rural,No,0.0,Sudeste,3,Espírito Santo,BR32,Mantenópolis,BR3203304,No
d01d96f0-9cb4-3d65-ad43-636fcdf42b2a,Brazil,government,32004605,EP CORREGO DO INDAIA,-18.8987,-40.9847,1.0,0,,Municipal,Rural,,,Sudeste,3,Espírito Santo,BR32,Mantenópolis,BR3203304,No
efdad4f2-f99c-3dd1-9ec7-158c6d2dfa9e,Brazil,government,32004613,EP CORREGO DO OURO,-18.8987,-40.9847,0.67,10,No,Municipal,Rural,No,0.0,Sudeste,3,Espírito Santo,BR32,Mantenópolis,BR3203304,No
93701ab9-5a16-3b09-b57b-3a30ed46c322,Brazil,government,32004621,EP CORREGO DO ROCHEDO,-18.8987,-40.9847,1.0,0,,Municipal,Rural,,,Sudeste,3,Espírito Santo,BR32,Mantenópolis,BR3203304,No
ac3eff4a-8946-3d56-9fcf-4b1c1ef0600b,Brazil,government,32004630,EU CORREGO RICO,-18.8987,-40.9847,1.0,0,,Municipal,Rural,,,Sudeste,3,Espírito Santo,BR32,Mantenópolis,BR3203304,No
a60fb3d5-7975-35dd-af03-ea3cc0fc2829,Brazil,government,32004672,EP MUL FAZENDA PORTILHO,-18.9404,-41.0564,1.0,56,No,Municipal,Rural,Yes,5.0,Sudeste,3,Espírito Santo,BR32,Mantenópolis,BR3203304,Yes
797dccfe-74f2-3f28-97ca-861ce41cc3cd,Brazil,government,32004729,EU MELQUIADES FRANCISCO DA SILVA,-18.8987,-40.9847,1.0,0,,Municipal,Rural,,,Sudeste,3,Espírito Santo,BR32,Mantenópolis,BR3203304,No
707b2277-8726-3dcc-8cb2-9e8d8106d13d,Brazil,government,32004737,EU NOSSA SRA DA PENHA,-18.8987,-40.9847,1.0,0,,Municipal,Rural,,,Sudeste,3,Espírito Santo,BR32,Mantenópolis,BR3203304,No
b3b91803-45b7-34b6-bab5-0a7fde81a5b4,Brazil,government,32004788,EP PROF ALZIRA DE OLIVEIRA GUERRA,-18.8311,-41.2094,1.0,0,,Municipal,Rural,,,Sudeste,3,Espírito Santo,BR32,Mantenópolis,BR3203304,No
44af7d2d-2ab8-33f3-b75e-5a93b3291a88,Brazil,government,32004800,ESCOLA MUNICIPAL VICENTE AMARO DA SILVA,-18.8356,-41.214,0.94,300,Yes,Municipal,Urban,Yes,2.0,Sudeste,3,Espírito Santo,BR32,Mantenópolis,BR3203304,Yes
8cd9269f-bb4a-3580-b319-67dcbcf9c778,Brazil,government,32004818,EU ALARICO ALVES MACIEL,-18.8462,-41.1259,1.0,0,,Municipal,Rural,,,Sudeste,3,Espírito Santo,BR32,Mantenópolis,BR3203304,No
0e360b17-43f7-3375-8fcb-6b0e983f89ca,Brazil,government,32004826,EP ALTO BOA VISTA,-18.9168,-40.9439,1.0,10,No,Municipal,Rural,No,0.0,Sudeste,3,Espírito Santo,BR32,Mantenópolis,BR3203304,No
6eed766a-9b08-30aa-9526-26db02fb882e,Brazil,government,32004850,EU CORREGO BOA VISTA,-18.8311,-41.2094,1.0,0,,Municipal,Rural,,,Sudeste,3,Espírito Santo,BR32,Mantenópolis,BR3203304,No
39c2cf22-ce57-374a-b0d3-75651e21dd3b,Brazil,government,32004869,EP CORREGO DA LUZ,-18.8311,-41.2094,1.0,0,,Municipal,Rural,,,Sudeste,3,Espírito Santo,BR32,Mantenópolis,BR3203304,No
e4d2c60a-a1b9-3915-bcd3-4fb1bf1d3b9a,Brazil,government,32004877,EU CORREGO DOS DEITADOS,-18.8311,-41.2094,1.0,0,,Municipal,Rural,,,Sudeste,3,Espírito Santo,BR32,Mantenópolis,BR3203304,No
7a25e5c2-d412-3e48-b25e-a56e04f2d6ac,Brazil,government,32004885,EU CORREGO SECO,-18.8311,-41.2094,1.0,0,,Municipal,Rural,,,Sudeste,3,Espírito Santo,BR32,Mantenópolis,BR3203304,No
582a071a-7498-3662-b2b1-7ee5a318a0f4,Brazil,government,32004893,EU GIRASSOL,-18.8311,-41.2094,1.0,0,,Municipal,Rural,,,Sudeste,3,Espírito Santo,BR32,Mantenópolis,BR3203304,No
7bacb9de-6d72-3816-b91d-1e8b9876a03d,Brazil,government,32004915,EU NOVO CRUZEIRO,-18.8311,-41.2094,1.0,0,,Municipal,Rural,,,Sudeste,3,Espírito Santo,BR32,Mantenópolis,BR3203304,No
56051ca5-aa4a-319a-a20d-04b67a221834,Brazil,government,32004966,EMEF BARRA DA JABUTICABA,-19.0186,-40.6579,1.0,106,No,Municipal,Rural,Yes,5.0,Sudeste,3,Espírito Santo,BR32,Águia Branca,BR3200136,Yes
8ac00b5d-5ac1-34fb-baaf-0f6103230b1d,Brazil,government,32005032,EP MUL FAZENDA CORTELETTI,-18.9808,-40.7396,1.0,0,,Municipal,Rural,,,Sudeste,3,Espírito Santo,BR32,Águia Branca,BR3200136,No
f4dbad08-bb9d-369e-9582-4333541c5d86,Brazil,government,32005040,EP MUL FAZENDA PARAISO,-18.862,-40.8372,0.94,6,No,Municipal,Rural,No,0.0,Sudeste,3,Espírito Santo,BR32,Águia Branca,BR3200136,No
012dc25b-b8ce-3424-bd44-842a2b47c660,Brazil,government,32005067,CEIER DE AGUIA BRANCA,-19.0164,-40.6523,1.0,258,Yes,Estadual,Rural,Yes,5.0,Sudeste,3,Espírito Santo,BR32,Águia Branca,BR3200136,Yes
2a2a7205-0569-3158-86a8-a1d1abd8f40b,Brazil,government,32005075,EMCA FAZENDA LACERDA,-18.8928,-40.8245,1.0,212,Yes,Municipal,Rural,Yes,2.0,Sudeste,3,Espírito Santo,BR32,Águia Branca,BR3200136,Yes
bedf334d-8391-3f23-878d-5b6c4a56d8d4,Brazil,government,32005091,EMEF PEDRA TORTA,-19.0647,-40.6847,1.0,156,Yes,Municipal,Rural,Yes,5.0,Sudeste,3,Espírito Santo,BR32,Águia Branca,BR3200136,Yes
00ca821d-d9d8-365c-b593-b1d6664e22d3,Brazil,government,32005105,EEEFM PROFESSORA ANA MARIA CARLETTI QUIUQUI,-18.9852,-40.7405,1.0,446,Yes,Estadual,Urban,Yes,2.0,Sudeste,3,Espírito Santo,BR32,Águia Branca,BR3200136,Yes
f3ed79c7-b3e9-3856-bf45-acdf748e5cb7,Brazil,government,32005202,ESCOLA UNIDOCENTE CORREGO DAS FLORES,-18.9808,-40.7396,1.0,0,,Municipal,Rural,,,Sudeste,3,Espírito Santo,BR32,Águia Branca,BR3200136,No
3db78eae-39d5-319a-ae8b-5a16730fb108,Brazil,government,32005210,EU CORREGO DAS PEDRAS,-18.9808,-40.7396,1.0,0,,Municipal,Rural,,,Sudeste,3,Espírito Santo,BR32,Águia Branca,BR3200136,No
4d35ccb2-d886-331c-8501-7f2f33060e41,Brazil,government,32005229,EMEF CORREGO DO CAFE,-18.9191,-40.752,0.94,193,No,Municipal,Rural,Yes,5.0,Sudeste,3,Espírito Santo,BR32,Águia Branca,BR3200136,Yes
7d522316-e103-3757-88ff-65e10079a5cd,Brazil,government,32005377,EU MUL LADISLAU MATUCHOCO,-18.9808,-40.7396,1.0,0,,Municipal,Rural,,,Sudeste,3,Espírito Santo,BR32,Águia Branca,BR3200136,No
26645af6-7593-3794-a1bb-7755689aa9cd,Brazil,government,32005393,EU SANTA CRUZ,-18.9808,-40.7396,1.0,0,,Municipal,Rural,,,Sudeste,3,Espírito Santo,BR32,Águia Branca,BR3200136,No
a84834f9-8cab-303b-a0fd-d30ae1a0366f,Brazil,government,32005431,PE MUL PEDACINHO DO CEU,-18.9808,-40.7396,1.0,0,,Municipal,Urban,,,Sudeste,3,Espírito Santo,BR32,Águia Branca,BR3200136,Yes
37c61d95-5acd-318b-b320-58c286a624f8,Brazil,government,32005482,CMEI PEQUENO POLEGAR,-18.5383,-40.2858,1.0,111,No,Municipal,Urban,Yes,5.0,Sudeste,3,Espírito Santo,BR32,Boa Esperança,BR3201001,Yes
48b0890a-0068-3618-a73d-b5b74bd13fe9,Brazil,government,32005490,CENTRO MUNICIPAL DE EDUCACAO INFANTIL PINGO DE GENTE,-18.5385,-40.2993,1.0,81,No,Municipal,Urban,Yes,5.0,Sudeste,3,Espírito Santo,BR32,Boa Esperança,BR3201001,Yes
e02247e1-249f-3e42-8ee2-98b2c1f5e34f,Brazil,government,32005580,CMEI CENTRO DE CONVIVENCIA DA CRIANCA,-18.5422,-40.2985,1.0,161,No,Municipal,Urban,Yes,5.0,Sudeste,3,Espírito Santo,BR32,Boa Esperança,BR3201001,Yes
e16dc198-9194-3e1a-8f9b-b3a3857f953f,Brazil,government,32005598,EMEIEF ANADYR DE ALMEIDA MARCHIORI,-18.5544,-40.2231,1.0,202,No,Municipal,Rural,Yes,5.0,Sudeste,3,Espírito Santo,BR32,Boa Esperança,BR3201001,Yes
74c4b0ca-7020-3414-8094-a5cab6e4b34f,Brazil,government,32005601,CENTRO ESTADUAL INTEGRADO DE EDUCACAO RURAL DE BOA ESPERANCA,-18.5381,-40.2728,1.0,218,Yes,Estadual,Rural,Yes,5.0,Sudeste,3,Espírito Santo,BR32,Boa Esperança,BR3201001,Yes
ca141f91-1bb3-3d34-b4e5-9f4b974497e1,Brazil,government,32005610,EMEF PROF IZAURA DE ALMEIDA SILVA,-18.5393,-40.2884,1.0,415,Yes,Municipal,Urban,Yes,5.0,Sudeste,3,Espírito Santo,BR32,Boa Esperança,BR3201001,Yes
a64426e2-fed2-33ff-afd3-d0c8d4548444,Brazil,government,32005628,EMEF PROF,-18.5399,-40.298,0.94,395,No,Municipal,Urban,Yes,5.0,Sudeste,3,Espírito Santo,BR32,Boa Esperança,BR3201001,Yes
51065b7b-b25c-3d88-a351-633fb8c86547,Brazil,government,32005644,EMEIEF QUILOMETRO VINTE,-18.487,-40.3985,0.94,228,No,Municipal,Rural,Yes,5.0,Sudeste,3,Espírito Santo,BR32,Boa Esperança,BR3201001,Yes
ad853ecd-0062-3a33-9d0a-b61a4fbf87e3,Brazil,government,32005652,EEEFM ANTONIO DOS SANTOS NEVES,-18.5409,-40.2984,1.0,1003,Yes,Estadual,Urban,Yes,5.0,Sudeste,3,Espírito Santo,BR32,Boa Esperança,BR3201001,Yes
4b48c111-c394-318a-8e1c-10c9a160e85b,Brazil,government,32005938,EMEIEF SANTO ANTONIO,-18.517,-40.3525,0.94,277,No,Municipal,Rural,Yes,5.0,Sudeste,3,Espírito Santo,BR32,Boa Esperança,BR3201001,Yes
9a63d2c3-fb22-3356-8ea7-3b707dbb9f93,Brazil,government,32005954,EEEFM SOBRADINHO,-18.4288,-40.3872,1.0,322,Yes,Estadual,Urban,Yes,5.0,Sudeste,3,Espírito Santo,BR32,Boa Esperança,BR3201001,Yes
61a3da5b-a0c4-3ee7-9c1e-0074e1584486,Brazil,government,32006039,CMEITI MARIA LUISA DIAS PESTANA SANTOS,-18.7008,-40.3958,1.0,108,No,Municipal,Urban,Yes,5.0,Sudeste,3,Espírito Santo,BR32,Nova Venécia,BR3203908,Yes
4359b457-3667-3611-aab2-38cafbd62c9c,Brazil,government,32006047,EMEF VENECIANO,-18.705,-40.3981,0.94,507,Yes,Municipal,Urban,Yes,5.0,Sudeste,3,Espírito Santo,BR32,Nova Venécia,BR3203908,Yes
cc72cae0-3ea7-32fd-9592-37103f56c5e9,Brazil,government,32006055,EMEF AREA PEREIRA,-18.6279,-40.3004,1.0,35,No,Municipal,Rural,Yes,2.0,Sudeste,3,Espírito Santo,BR32,Nova Venécia,BR3203908,Yes
ecebbaa7-635d-3f1a-ac0b-d6aec0d4bdc0,Brazil,government,32006063,EMEF LUZIA ZOTELE PARTELLI,-18.835,-40.4359,0.94,8,No,Municipal,Rural,Yes,5.0,Sudeste,3,Espírito Santo,BR32,Nova Venécia,BR3203908,Yes
6d5d12c4-0a89-3016-9af5-c2a9d55ddc0b,Brazil,government,32006080,EMEF CACHOEIRA GRANDE,-18.5585,-40.3392,1.0,18,No,Municipal,Rural,No,0.0,Sudeste,3,Espírito Santo,BR32,Nova Venécia,BR3203908,No
7b60f262-c18a-3d84-9828-845af4e53580,Brazil,government,32006101,EMEF CORREGO DO POCAO,-18.8208,-40.5728,1.0,29,No,Municipal,Rural,Yes,2.0,Sudeste,3,Espírito Santo,BR32,Nova Venécia,BR3203908,Yes
b5d24b90-8f14-3bc5-8530-d8d195632932,Brazil,government,32006128,EMEF FAZENDA VITORIO DE ANGELO,-18.7871,-40.4754,1.0,5,No,Municipal,Rural,Yes,5.0,Sudeste,3,Espírito Santo,BR32,Nova Venécia,BR3203908,Yes
4c27cbb3-5223-372a-abc4-3da7b5022928,Brazil,government,32006136,EPM PATRIMONIO CORREGO DA AREIA,-18.6316,-40.2788,1.0,26,No,Municipal,Rural,No,0.0,Sudeste,3,Espírito Santo,BR32,São Mateus,BR3204906,No
2933df11-bf97-30a8-b189-8bc315cf1906,Brazil,government,32006144,EMEF MARINA CAMPANHOLLE,-18.583,-40.4326,0.94,30,No,Municipal,Rural,Yes,2.0,Sudeste,3,Espírito Santo,BR32,Nova Venécia,BR3203908,Yes
c0e79d95-0de2-39b7-b0bd-fa89bfb156d9,Brazil,government,32006160,EMEF SAO CRISTOVAO,-18.7249,-40.4212,1.0,309,Yes,Municipal,Urban,Yes,5.0,Sudeste,3,Espírito Santo,BR32,Nova Venécia,BR3203908,Yes
be746311-f97b-301c-9326-f1be556f081d,Brazil,government,32006179,EUM SAO JOAO BOSCO,-18.6459,-40.2797,1.0,19,No,Municipal,Rural,Yes,2.0,Sudeste,3,Espírito Santo,BR32,São Mateus,BR3204906,Yes
98b43047-452a-3f7d-b389-8e794405ead3,Brazil,government,32006195,EMEF SAO JOSE,-18.712,-40.4453,0.94,0,,Municipal,Rural,,,Sudeste,3,Espírito Santo,BR32,Nova Venécia,BR3203908,No
a0759aa3-18a4-3d6f-b950-367951dda039,Brazil,government,32006217,EMEF SANTA ROSA DA CACHOEIRINHA,-18.758,-40.4877,0.61,12,No,Municipal,Rural,No,0.0,Sudeste,3,Espírito Santo,BR32,Nova Venécia,BR3203908,No
410fb9fd-5377-3cad-b146-3722d6778735,Brazil,government,32006233,EMEF BAIRRO ALTOE,-18.6886,-40.39,0.89,296,Yes,Municipal,Urban,Yes,2.0,Sudeste,3,Espírito Santo,BR32,Nova Venécia,BR3203908,Yes
fffd4d46-da9c-3f6c-a89f-2acc87768e03,Brazil,government,32006241,EMEF DR ADALTON SANTOS,-18.7138,-40.3993,1.0,581,Yes,Municipal,Urban,Yes,5.0,Sudeste,3,Espírito Santo,BR32,Nova Venécia,BR3203908,Yes
0e9b2756-c518-391d-8334-f8dae6487159,Brazil,government,32006268,EMEF DR,-18.7084,-40.3943,1.0,271,Yes,Municipal,Urban,Yes,5.0,Sudeste,3,Espírito Santo,BR32,Nova Venécia,BR3203908,Yes
d256bb1f-cbc3-30bf-a4c3-66235cc62cee,Brazil,government,32006276,EMEIEF LOURDES SCARDINI,-18.715,-40.3933,0.94,179,No,Municipal,Urban,Yes,5.0,Sudeste,3,Espírito Santo,BR32,Nova Venécia,BR3203908,Yes
0b607ac0-57cd-3de6-8e21-fb2ed9e6cf62,Brazil,government,32006284,EMEF STANISLAW ZUCOLOTO,-18.6921,-40.4004,1.0,437,Yes,Municipal,Urban,Yes,5.0,Sudeste,3,Espírito Santo,BR32,Nova Venécia,BR3203908,Yes
d3233726-3326-3035-aaf6-68288c094b30,Brazil,government,32006292,EEEF PADRE JOSIMO,-18.7116,-40.5363,1.0,7,No,Estadual,Rural,No,0.0,Sudeste,3,Espírito Santo,BR32,Nova Venécia,BR3203908,No
5ff8b8fe-b771-3ac6-89a3-00076e99d4f5,Brazil,government,32006314,EMEF PROF CLAUDINA BARBOSA,-18.7128,-40.3989,1.0,421,Yes,Municipal,Urban,Yes,5.0,Sudeste,3,Espírito Santo,BR32,Nova Venécia,BR3203908,Yes
82bdb339-684f-33e5-8a37-e300db88eb95,Brazil,government,32006322,EMEF PROF MARIA RODRIGUES LEITE,-18.7099,-40.4034,1.0,213,Yes,Municipal,Urban,Yes,5.0,Sudeste,3,Espírito Santo,BR32,Nova Venécia,BR3203908,Yes
9bc03d11-fb46-324c-a2df-ed8b287e1226,Brazil,government,32006330,EEEFM PROF ANA PORTELA DE SA,-18.6188,-40.5992,1.0,258,Yes,Estadual,Urban,Yes,5.0,Sudeste,3,Espírito Santo,BR32,Vila Pavão,BR3205150,Yes
bd512f22-cb3a-3cc7-b372-55a250067ef2,Brazil,government,32006349,EEEM DOM DANIEL COMBONI,-18.7131,-40.3985,1.0,1437,Yes,Estadual,Urban,Yes,5.0,Sudeste,3,Espírito Santo,BR32,Nova Venécia,BR3203908,Yes
46916e47-0421-3469-96d7-61f5763f3223,Brazil,government,32006578,EMUEF PEDRO LABAREWSKI,-18.6972,-40.6897,1.0,8,No,Municipal,Rural,No,0.0,Sudeste,3,Espírito Santo,BR32,Vila Pavão,BR3205150,No
0811ecba-71c8-3cd6-8391-7dffd4362f01,Brazil,government,32006586,EMEIEF CORREGO DA PALMEIRA,-18.6572,-40.3173,1.0,22,No,Municipal,Rural,No,0.0,Sudeste,3,Espírito Santo,BR32,Nova Venécia,BR3203908,No
4c14a816-f830-33f0-b532-5ad4f8aee9c1,Brazil,government,32006632,EMEF CORREGO DO AUGUSTO VIRGINIO CHIARELLI,-18.8514,-40.5061,1.0,28,No,Municipal,Rural,No,0.0,Sudeste,3,Espírito Santo,BR32,Nova Venécia,BR3203908,No
a7fe5794-9712-31f4-9838-13b26e6475bb,Brazil,government,32006667,EMEF CORREGO DO MARCELINO,-18.8054,-40.4259,1.0,10,No,Municipal,Rural,No,0.0,Sudeste,3,Espírito Santo,BR32,Nova Venécia,BR3203908,No
1259c413-e25c-39c4-86d6-c9c901cbf724,Brazil,government,32006675,EMEF JOAO VENTURIM SOBRINHO,-18.8713,-40.5443,1.0,15,No,Municipal,Rural,No,0.0,Sudeste,3,Espírito Santo,BR32,Nova Venécia,BR3203908,No
8d2c77a6-2fd9-3c68-baf6-5419ce2e5fad,Brazil,government,32006683,EMEF CORREGO DO OURO,-18.5982,-40.3362,1.0,5,No,Municipal,Rural,Yes,2.0,Sudeste,3,Espírito Santo,BR32,Nova Venécia,BR3203908,No
66085a3b-d08c-3402-a58c-e8f1955c0156,Brazil,government,32006748,EPM ANNA LUBBE LONARDELLI,-18.6386,-40.2627,1.0,20,No,Municipal,Rural,Yes,2.0,Sudeste,3,Espírito Santo,BR32,São Mateus,BR3204906,Yes
d7a4679a-309a-361e-96c1-e559708e4e87,Brazil,government,32006756,EMEF LAURINDA DOS ANJOS,-18.6934,-40.3534,1.0,11,No,Municipal,Rural,No,0.0,Sudeste,3,Espírito Santo,BR32,Nova Venécia,BR3203908,No
44abee2f-68bc-3c81-a219-38dc289b98cf,Brazil,government,32006772,EMEF PATRIMONIO DE LUZILANDIA,-18.7024,-40.5707,1.0,7,No,Municipal,Rural,No,0.0,Sudeste,3,Espírito Santo,BR32,Nova Venécia,BR3203908,Yes
da51663c-06b5-3b51-99ad-bf3fdd691ae2,Brazil,government,32006799,EMEIEF REFRIGERIO,-18.6005,-40.3683,1.0,36,No,Municipal,Rural,No,0.0,Sudeste,3,Espírito Santo,BR32,Nova Venécia,BR3203908,No
eac8234b-33b2-3dab-8553-aff5629c2ea2,Brazil,government,32006896,CMEI VERA LUCIA GALVAO,-18.6969,-40.3951,1.0,191,No,Municipal,Urban,Yes,5.0,Sudeste,3,Espírito Santo,BR32,Nova Venécia,BR3203908,Yes
523b01bc-dbf3-3d3c-ad82-9cea8eee0859,Brazil,government,32006985,CMEI LAR DE FATIMA,-18.7126,-40.4063,1.0,149,No,Municipal,Urban,Yes,5.0,Sudeste,3,Espírito Santo,BR32,Nova Venécia,BR3203908,Yes
34c454e4-2790-3233-a0c9-3ca387c1d93a,Brazil,government,32007000,CEIER DE VILA PAVAO,-18.6489,-40.614,0.94,183,Yes,Estadual,Rural,Yes,5.0,Sudeste,3,Espírito Santo,BR32,Vila Pavão,BR3205150,Yes
707a2caf-2323-333a-8c81-1634a7b35ac3,Brazil,government,32007019,CMEA AGOSTINHO BATISTA VELOSO,-18.4971,-40.5534,1.0,110,No,Municipal,Rural,Yes,2.0,Sudeste,3,Espírito Santo,BR32,Vila Pavão,BR3205150,Yes
21128026-8743-318b-a234-983befbdcd5c,Brazil,government,32007043,EMPEF CORREGO DO SOSSEGO,-18.6276,-40.6459,1.0,5,No,Municipal,Rural,No,0.0,Sudeste,3,Espírito Santo,BR32,Vila Pavão,BR3205150,No
1164e4b7-556c-325b-a747-3b7fb308eecc,Brazil,government,32007051,EMPEF CORREGO SANTO ESTEVAO,-18.6849,-40.6501,1.0,9,No,Municipal,Rural,No,0.0,Sudeste,3,Espírito Santo,BR32,Vila Pavão,BR3205150,No
d63fa8ad-b68f-3021-bf90-94c8dcf06c76,Brazil,government,32007078,CMEA ARTUR PAGUNG,-18.522,-40.61,0.83,99,No,Municipal,Rural,Yes,2.0,Sudeste,3,Espírito Santo,BR32,Vila Pavão,BR3205150,Yes
a6ba90ff-d2b9-3570-8a05-2ec0225a1448,Brazil,government,32007086,EMPEF SAO ROQUE DO ESTEVAO,-18.6495,-40.6152,1.0,9,No,Municipal,Rural,No,0.0,Sudeste,3,Espírito Santo,BR32,Vila Pavão,BR3205150,No
ba9fcef1-7cf8-37f6-b8f4-a7436c41a36d,Brazil,government,32007108,EMEF AGUA LIMPA,-18.8672,-40.6729,1.0,0,,Municipal,Rural,,,Sudeste,3,Espírito Santo,BR32,Nova Venécia,BR3203908,No
e5296ab5-e2f7-3729-aa7a-d2a08626280b,Brazil,government,32007116,EMEF CAMPO BELO,-18.8844,-40.6306,1.0,11,No,Municipal,Rural,Yes,2.0,Sudeste,3,Espírito Santo,BR32,Nova Venécia,BR3203908,Yes
ec490ac4-118b-3556-913d-2528c7136c36,Brazil,government,32007124,EMEF CORREGO DO CRISTAL,-18.7852,-40.7227,1.0,19,No,Municipal,Rural,No,0.0,Sudeste,3,Espírito Santo,BR32,Nova Venécia,BR3203908,No
8b4f2b94-2670-3abb-95a6-09969e948d2d,Brazil,government,32007140,EMEF FAZENDA SANTA RITA,-18.7944,-40.6384,1.0,5,No,Municipal,Rural,No,0.0,Sudeste,3,Espírito Santo,BR32,Nova Venécia,BR3203908,No
77d02386-9eb7-32d5-bc21-cfa20e3abf3e,Brazil,government,32007175,EEEFM ALARICO JOSE DE LIMA,-18.8317,-40.7156,1.0,293,Yes,Estadual,Urban,Yes,5.0,Sudeste,3,Espírito Santo,BR32,Nova Venécia,BR3203908,Yes
b6cbdd46-22af-3d39-9386-590e41df4ad2,Brazil,government,32007183,EMEIEF CEDROLANDIA,-18.807,-40.6873,0.94,166,Yes,Municipal,Rural,Yes,2.0,Sudeste,3,Espírito Santo,BR32,Nova Venécia,BR3203908,Yes
79c4c25e-42f7-3ce5-a8a6-2ce37839697b,Brazil,government,32007191,EMEIEF FRANCISCO SECCHIM,-18.7854,-40.5778,1.0,230,No,Municipal,Rural,Yes,2.0,Sudeste,3,Espírito Santo,BR32,Nova Venécia,BR3203908,Yes
858d1d2e-12fe-3b9e-a1bd-eb7a2e7eea5a,Brazil,government,32007205,EMEIEF PATRIMONIO DE SAO GONCALO,-18.7104,-40.649,0.94,93,No,Municipal,Rural,Yes,5.0,Sudeste,3,Espírito Santo,BR32,Nova Venécia,BR3203908,Yes
0a2dea22-a574-3321-9d5f-49adae7cfb57,Brazil,government,32007213,EMEIEF REGINA ALVES DUTRA,-18.8237,-40.763,0.94,251,No,Municipal,Rural,Yes,2.0,Sudeste,3,Espírito Santo,BR32,Nova Venécia,BR3203908,Yes
1cce673a-95d6-393c-8b7b-edd90fa0242b,Brazil,government,32007280,EMEIEF OROZIMBO CORREA DA SILVA,-18.9042,-40.6738,1.0,35,No,Municipal,Rural,Yes,2.0,Sudeste,3,Espírito Santo,BR32,Nova Venécia,BR3203908,Yes
21531876-3b52-31a3-914b-b0f5da73ad96,Brazil,government,32007396,EMEF SAO SIMAO,-18.9088,-40.704,0.94,26,No,Municipal,Rural,Yes,2.0,Sudeste,3,Espírito Santo,BR32,Nova Venécia,BR3203908,Yes
1aa8823c-0000-3a51-9b4f-9cf91403d76d,Brazil,government,32007469,EMEF CORREGO DA TRAVESSIA,-18.3793,-40.553,0.94,12,No,Municipal,Rural,No,0.0,Sudeste,3,Espírito Santo,BR32,Nova Venécia,BR3203908,No
c8ccc2c1-e7e4-35bb-91f9-c849f304c011,Brazil,government,32007477,EMEF CORREGO DO PARAISO,-18.6111,-40.4668,1.0,13,No,Municipal,Rural,Yes,2.0,Sudeste,3,Espírito Santo,BR32,Nova Venécia,BR3203908,No
30b0583e-b6de-337f-a9ba-1b77e18b1021,Brazil,government,32007485,EEPEF FAZENDA JACUTINGA,-18.4224,-40.5206,1.0,8,No,Estadual,Rural,No,0.0,Sudeste,3,Espírito Santo,BR32,Nova Venécia,BR3203908,No
36f95c02-8d7d-3a89-9f1f-28370f09c0c5,Brazil,government,32007493,EMEF PROF MARIA MAGDALENA MAGNAGO CARDOSO,-18.5494,-40.45,0.89,18,No,Municipal,Rural,No,0.0,Sudeste,3,Espírito Santo,BR32,Nova Venécia,BR3203908,No
99a0966b-b62e-3334-b2f0-a06f77e812d2,Brazil,government,32007507,EMEIEF SAO LUIZ REI,-18.4903,-40.5212,1.0,14,No,Municipal,Rural,Yes,2.0,Sudeste,3,Espírito Santo,BR32,Nova Venécia,BR3203908,Yes
3c7b20ab-5888-3847-a2cf-49b5605ffb2b,Brazil,government,32007515,EEEFM JOSE ZAMPROGNO,-18.4951,-40.4663,1.0,254,Yes,Estadual,Urban,Yes,5.0,Sudeste,3,Espírito Santo,BR32,Nova Venécia,BR3203908,Yes
b7aa9fbf-749b-3da5-92e8-77db4d08c11d,Brazil,government,32007540,EMEF FINISTAURO GRILLO,-18.5652,-40.4634,1.0,25,No,Municipal,Rural,No,0.0,Sudeste,3,Espírito Santo,BR32,Nova Venécia,BR3203908,No
500e74fc-aae5-336e-9a28-e9f45c250128,Brazil,government,32007566,EMEF CORREGO DO LIMAO,-18.5651,-40.5505,1.0,16,No,Municipal,Rural,No,0.0,Sudeste,3,Espírito Santo,BR32,Nova Venécia,BR3203908,No
a404f814-cd91-3893-a5a3-9b2dd9d3247f,Brazil,government,32007582,EMEF FAZENDA QUARESMA,-18.4965,-40.5043,1.0,0,,Municipal,Rural,,,Sudeste,3,Espírito Santo,BR32,Nova Venécia,BR3203908,No
6571645f-d42f-394e-aee6-4a73abd3e832,Brazil,government,32007620,EMEF SAO MIGUEL,-18.5454,-40.5269,1.0,20,No,Municipal,Rural,No,0.0,Sudeste,3,Espírito Santo,BR32,Nova Venécia,BR3203908,No
096914a4-fffd-3b2d-a375-3dab7644b126,Brazil,government,32007655,EMEIEF BEM VIVER,-19.0304,-40.5297,1.0,82,Yes,Municipal,Urban,Yes,5.0,Sudeste,3,Espírito Santo,BR32,São Gabriel da Palha,BR3204708,Yes
992e16da-4bc2-387a-a4db-fb6b42f4afeb,Brazil,government,32007663,CMEI VOVO ZEFA,-19.0089,-40.5396,1.0,334,No,Municipal,Urban,Yes,5.0,Sudeste,3,Espírito Santo,BR32,São Gabriel da Palha,BR3204708,Yes
a08ed1f4-e2ec-3c81-8ee9-c913a1f4f5d9,Brazil,government,32007710,EEUEF FAZENDA LORENZONI,-19.0277,-40.479,0.94,0,,Estadual,Rural,,,Sudeste,3,Espírito Santo,BR32,São Gabriel da Palha,BR3204708,No
e569c709-a994-30bb-9600-7db268ef3df1,Brazil,government,32007736,EMEIEF JOAO GABRIEL,-19.0333,-40.5418,1.0,253,Yes,Municipal,Urban,Yes,5.0,Sudeste,3,Espírito Santo,BR32,São Gabriel da Palha,BR3204708,Yes
648bf748-34a3-3263-98f0-4aee322df0d4,Brazil,government,32007744,EEPEF JOSE ANTONIO DA SILVA ONOFRE,-18.9203,-40.601,0.94,37,No,Estadual,Rural,Yes,5.0,Sudeste,3,Espírito Santo,BR32,Nova Venécia,BR3203908,Yes
e444715e-8904-3bf0-b676-b5013a43d216,Brazil,government,32007752,EMUEF LADIR DA PENHA,-19.0392,-40.6156,1.0,14,No,Municipal,Rural,No,0.0,Sudeste,3,Espírito Santo,BR32,São Gabriel da Palha,BR3204708,No
04f99ac8-5dea-3822-877c-213cd6943eca,Brazil,government,32007760,EMUEIEF RANCHO ALTO,-19.0052,-40.5417,1.0,11,No,Municipal,Rural,No,0.0,Sudeste,3,Espírito Santo,BR32,São Gabriel da Palha,BR3204708,No
864f336c-a47e-382b-918f-83f8ac24b972,Brazil,government,32007779,EEUEF VALDIVINO GROONER,-18.9908,-40.477,0.94,6,No,Estadual,Rural,No,0.0,Sudeste,3,Espírito Santo,BR32,São Gabriel da Palha,BR3204708,No
832c53ed-0781-3ade-af8a-2956f5562cf6,Brazil,government,32007787,EMEF PROFESSORA ANNA CAVATTI COLOMBI,-19.0068,-40.5397,1.0,359,No,Municipal,Urban,Yes,2.0,Sudeste,3,Espírito Santo,BR32,São Gabriel da Palha,BR3204708,Yes
0af05bf3-b8f1-3b1d-ac76-78a1134cd385,Brazil,government,32007795,EMEF BERTOLO MALACARNE,-19.0409,-40.5418,1.0,340,Yes,Municipal,Urban,Yes,5.0,Sudeste,3,Espírito Santo,BR32,São Gabriel da Palha,BR3204708,Yes
1524bc6f-5374-3b73-93aa-f9bc712b0a47,Brazil,government,32007817,EMEF IRMA ADELAIDE BERTOCCHI,-19.0217,-40.5357,1.0,852,No,Municipal,Urban,Yes,5.0,Sudeste,3,Espírito Santo,BR32,São Gabriel da Palha,BR3204708,Yes
bcb2c305-8591-32e4-ae80-cad6e36d77d7,Brazil,government,32007825,EMEF PROFESSOR CARLOS DIAS MIRANDA CUNHA,-19.0153,-40.5407,1.0,381,No,Municipal,Urban,Yes,5.0,Sudeste,3,Espírito Santo,BR32,São Gabriel da Palha,BR3204708,Yes
2900ecd1-97e1-38aa-8a98-629b7bca4f17,Brazil,government,32007841,EMEF PROF MARIA CELESTE TOREZANI STORCH,-19.0214,-40.5371,1.0,468,Yes,Municipal,Urban,Yes,5.0,Sudeste,3,Espírito Santo,BR32,São Gabriel da Palha,BR3204708,Yes
4f7b699c-5950-3d5c-b23e-9c75abfab34e,Brazil,government,32007850,PEM CHAPEUZINHO VERMELHO,-19.0178,-40.536,0.94,241,Yes,Municipal,Urban,Yes,5.0,Sudeste,3,Espírito Santo,BR32,São Gabriel da Palha,BR3204708,Yes
4ea55ed8-11fd-3573-a7f1-b08a31473a3e,Brazil,government,32007876,CEEMTI GOVERNADOR GERSON CAMATA,-19.012,-40.5352,0.94,240,Yes,Estadual,Urban,Yes,5.0,Sudeste,3,Espírito Santo,BR32,São Gabriel da Palha,BR3204708,Yes
4dc71bfb-b667-3676-ba9b-9dc5de6bdc02,Brazil,government,32007965,EEUEF CORREGO BLEY,-19.0145,-40.4733,1.0,18,No,Estadual,Rural,No,0.0,Sudeste,3,Espírito Santo,BR32,São Gabriel da Palha,BR3204708,No
f8ba8868-16d2-39d1-a127-97a4ba364452,Brazil,government,32007973,EEUEF CORREGO COMPRIDO,-19.0285,-40.5112,1.0,8,No,Estadual,Rural,No,0.0,Sudeste,3,Espírito Santo,BR32,São Gabriel da Palha,BR3204708,No
a80f23f4-9f53-3fbc-bf2a-d3c82c8c29eb,Brazil,government,32007981,EEUEF CORREGO DA LAPA,-18.9189,-40.5633,1.0,20,No,Estadual,Rural,No,0.0,Sudeste,3,Espírito Santo,BR32,São Gabriel da Palha,BR3204708,No
d92fd22f-5a6b-3856-bab5-fdbd8d12501f,Brazil,government,32008007,EEUEF CORREGO DAS ARARAS,-18.9779,-40.4919,1.0,8,No,Estadual,Rural,No,0.0,Sudeste,3,Espírito Santo,BR32,São Gabriel da Palha,BR3204708,No
434d2648-1a0c-3ca7-8e69-3a7425e01829,Brazil,government,32008023,EMUEF CORREGO SETE DE SETEMBRO,-18.9816,-40.5476,1.0,0,,Municipal,Rural,,,Sudeste,3,Espírito Santo,BR32,São Gabriel da Palha,BR3204708,No
8c0c34eb-c3c2-32fb-842d-a469b5fc2dc4,Brazil,government,32008066,EEUEF FAZENDA SUAVE,-18.9899,-40.5721,1.0,14,No,Estadual,Rural,No,0.0,Sudeste,3,Espírito Santo,BR32,São Gabriel da Palha,BR3204708,No
97428dc0-6e15-34e3-8f86-f3357274758b,Brazil,government,32008104,EEUEF SAO JOAO BATISTA,-19.0025,-40.4921,1.0,13,No,Estadual,Rural,No,0.0,Sudeste,3,Espírito Santo,BR32,São Gabriel da Palha,BR3204708,No
a4c4cb4a-3655-30dc-8a00-5531674625d0,Brazil,government,32008112,EEUEF SAO SALVADOR,-19.0471,-40.4917,1.0,11,No,Estadual,Rural,No,0.0,Sudeste,3,Espírito Santo,BR32,São Gabriel da Palha,BR3204708,No
6aecfc1a-f3ae-318f-b1dc-f39e6839e3bf,Brazil,government,32008198,EEUEF CORREGO IRACEMA,-18.8588,-40.4088,1.0,8,No,Estadual,Rural,No,0.0,Sudeste,3,Espírito Santo,BR32,São Gabriel da Palha,BR3204708,No
8dc118af-d1bf-3a61-a122-e0f037d553b0,Brazil,government,32008201,EEUEF FAZENDA LOVO,-18.9454,-40.4848,1.0,9,No,Estadual,Rural,No,0.0,Sudeste,3,Espírito Santo,BR32,São Gabriel da Palha,BR3204708,No
8b9b807b-d633-3fa6-82de-6f96d4c7b51c,Brazil,government,32008210,EMUEIEF SAO SEBASTIAO DA BARRA SECA,-18.9104,-40.5842,1.0,24,No,Municipal,Rural,No,0.0,Sudeste,3,Espírito Santo,BR32,São Gabriel da Palha,BR3204708,No
0b3e609f-42a5-367a-80fc-e5ea675c73d7,Brazil,government,32008228,EMUEIEF PATRIMONIO SAO ROQUE,-19.0205,-40.5328,1.0,24,No,Municipal,Rural,No,0.0,Sudeste,3,Espírito Santo,BR32,São Gabriel da Palha,BR3204708,No
80266c52-3db9-3eb3-af14-f2143ade5b4e,Brazil,government,32008236,EEEFM VERA CRUZ,-18.9039,-40.4481,1.0,250,Yes,Estadual,Urban,Yes,2.0,Sudeste,3,Espírito Santo,BR32,São Gabriel da Palha,BR3204708,Yes
57acd863-d5d7-3306-9bc2-ce5e5fb7c60e,Brazil,government,32008260,EEUEF CORREGO IPIRANGA,-18.905,-40.4439,0.94,0,,Estadual,Rural,,,Sudeste,3,Espírito Santo,BR32,São Gabriel da Palha,BR3204708,No
64c0f5ee-8fbd-3302-b178-7dd7aaa0dc43,Brazil,government,32008317,EEUEF FAZENDA DOBROWOLSKY,-18.8849,-40.4276,1.0,4,No,Estadual,Rural,No,0.0,Sudeste,3,Espírito Santo,BR32,São Gabriel da Palha,BR3204708,No
2daf327c-aa3f-357f-954c-5e222272514a,Brazil,government,32008368,EMUEF FLOR DA TERRA ROXA,-18.8838,-40.3949,1.0,9,No,Municipal,Rural,Yes,2.0,Sudeste,3,Espírito Santo,BR32,São Gabriel da Palha,BR3204708,No
4dfd3f1a-0ae6-3226-8510-1a30eb9d3e06,Brazil,government,32008392,EEUEF VALE ENCANTADO,-18.9642,-40.4745,1.0,0,,Estadual,Rural,,,Sudeste,3,Espírito Santo,BR32,São Gabriel da Palha,BR3204708,No
b15ac276-a256-398a-8b7e-a85fc45db499,Brazil,government,32008430,EMEI OTILIA BREDA DE MARTINS,-19.0019,-40.3877,1.0,134,No,Municipal,Urban,Yes,5.0,Sudeste,3,Espírito Santo,BR32,Vila Valério,BR3205176,Yes
02d6914a-e56e-3136-831d-c467ab7fe49e,Brazil,government,32008457,EMEIEF BERNARDO MANTOVANELLI,-19.0166,-40.4324,1.0,106,No,Municipal,Rural,Yes,2.0,Sudeste,3,Espírito Santo,BR32,Vila Valério,BR3205176,Yes
4eba1300-c089-3786-aa6c-ee8d89b43cec,Brazil,government,32008473,EEEF CORREGO QUEIXADA,-18.9448,-40.4202,1.0,61,Yes,Estadual,Rural,Yes,2.0,Sudeste,3,Espírito Santo,BR32,São Gabriel da Palha,BR3204708,Yes
b3c7f556-fa46-3271-aa70-0c1a3995969a,Brazil,government,32008481,EEEF VALERIO,-19.002,-40.3873,0.94,201,No,Estadual,Urban,Yes,5.0,Sudeste,3,Espírito Santo,BR32,Vila Valério,BR3205176,Yes
55ff1fb3-a512-3875-b0f9-c6b0a890f1e3,Brazil,government,32008490,EMEI CINDERELA,-18.9974,-40.3887,1.0,227,No,Municipal,Urban,Yes,5.0,Sudeste,3,Espírito Santo,BR32,Vila Valério,BR3205176,Yes
9ecb2b7c-dfac-3d17-9579-1687618b9295,Brazil,government,32008503,EEEFM ATILIO VIVACQUA,-18.9986,-40.3917,1.0,671,No,Estadual,Urban,Yes,5.0,Sudeste,3,Espírito Santo,BR32,Vila Valério,BR3205176,Yes
42bd5226-21e3-33d5-9f9c-d9b7ee7d8c99,Brazil,government,32008520,EEUEF ALTO VALERIO,-18.9592,-40.376,0.94,17,No,Estadual,Rural,No,0.0,Sudeste,3,Espírito Santo,BR32,Vila Valério,BR3205176,No
2f9a9d63-91c7-3a3e-8467-349a739bac95,Brazil,government,32008627,EEUEF DUAS BARRAS,-18.9247,-40.3821,1.0,8,No,Estadual,Rural,No,0.0,Sudeste,3,Espírito Santo,BR32,São Gabriel da Palha,BR3204708,No
7fa2b30d-2620-3f02-afa3-b2ef1fc13bc7,Brazil,government,32008651,EEUEF FAZENDA SAO GERALDO,-18.9716,-40.4092,1.0,8,No,Estadual,Rural,No,0.0,Sudeste,3,Espírito Santo,BR32,Vila Valério,BR3205176,No
799f722e-7ed9-316b-ac68-433b97e04170,Brazil,government,32008694,EMPEF MARIA PAGEL STORARI,-18.5211,-40.6637,1.0,31,No,Municipal,Rural,Yes,2.0,Sudeste,3,Espírito Santo,BR32,Vila Pavão,BR3205150,Yes
806c349c-7870-395f-aa8f-db5b5dad2b57,Brazil,government,32008708,EMPEF PROFESSOR FLORENCO TRAMS,-18.5465,-40.596,0.94,0,,Municipal,Rural,,,Sudeste,3,Espírito Santo,BR32,Vila Pavão,BR3205150,No
d23be516-bab7-38f7-8346-7289181557b5,Brazil,government,32008716,EMPEF FRIDA TOHNES BUGE,-18.6699,-40.6293,1.0,11,No,Municipal,Rural,No,0.0,Sudeste,3,Espírito Santo,BR32,Vila Pavão,BR3205150,No
0e379f4c-53a6-3361-b7e6-7fbcb2d33b6b,Brazil,government,32008724,EMPEF WASCHINGTON DONDONI,-18.6927,-40.6219,1.0,9,No,Municipal,Rural,No,0.0,Sudeste,3,Espírito Santo,BR32,Vila Pavão,BR3205150,No
35bd1ea2-8bca-3c2e-9210-0cc56ff4c5ea,Brazil,government,32008732,EMPEF FAZENDA TREVIZANI,-18.6142,-40.6272,1.0,0,,Municipal,Rural,,,Sudeste,3,Espírito Santo,BR32,Vila Pavão,BR3205150,No
71e9484a-bf56-397b-83e9-1a9e389167ee,Brazil,government,32008740,EMPEF CORREGO DAS FLORES,-18.6142,-40.6272,0.67,8,No,Municipal,Rural,No,0.0,Sudeste,3,Espírito Santo,BR32,Vila Pavão,BR3205150,No
68a5c9ad-b69b-394b-be45-56c8f40e7574,Brazil,government,32008759,EMPEFEI ANTONIO MOREIRA,-18.6348,-40.6911,1.0,24,No,Municipal,Rural,Yes,2.0,Sudeste,3,Espírito Santo,BR32,Vila Pavão,BR3205150,Yes
11e36e0e-0a36-3cb4-bc4d-5412b207eb3f,Brazil,government,32008767,EMUEF ANGELICA FIRMINO,-18.6142,-40.6272,1.0,0,,Municipal,Rural,,,Sudeste,3,Espírito Santo,BR32,Vila Pavão,BR3205150,No
981a1640-78a5-3e96-8091-ee4e915eb826,Brazil,government,32008791,EMUEF CABECEIRA DA LAGINHA,-18.5835,-40.5982,1.0,9,No,Municipal,Rural,No,0.0,Sudeste,3,Espírito Santo,BR32,Vila Pavão,BR3205150,No
4f33e067-567c-3f71-8041-2703a2f7a342,Brazil,government,32008821,EMUEF CABECEIRA DO CORREGO GRANDE,-18.585,-40.5646,0.94,8,No,Municipal,Rural,No,0.0,Sudeste,3,Espírito Santo,BR32,Vila Pavão,BR3205150,No
db7b8ee4-29c9-33e8-ae67-554ef9393f3d,Brazil,government,32008848,EMUEF CORREGO DA CUTIEIRA,-18.6154,-40.6485,1.0,10,No,Municipal,Rural,No,0.0,Sudeste,3,Espírito Santo,BR32,Vila Pavão,BR3205150,No
51595443-c76e-3396-bac8-c09e18d7f0d0,Brazil,government,32008872,EMUEF CORREGO DO MAROTO,-18.6347,-40.5852,1.0,15,No,Municipal,Rural,No,0.0,Sudeste,3,Espírito Santo,BR32,Vila Pavão,BR3205150,No
986848fc-c59b-38a7-8e4d-dce4e8f8bdae,Brazil,government,32008880,EMUEF CORREGO DO MUTUM,-18.5612,-40.5779,1.0,5,No,Municipal,Rural,No,0.0,Sudeste,3,Espírito Santo,BR32,Vila Pavão,BR3205150,No
13eecf0f-fb34-3fe5-84d9-774638277c4c,Brazil,government,32008899,EMUEF CORREGO DO TAMANDUA,-18.6498,-40.5534,1.0,16,No,Municipal,Rural,No,0.0,Sudeste,3,Espírito Santo,BR32,Vila Pavão,BR3205150,No
0f4afdc9-c4de-3cab-a075-ed37ba63a5f3,Brazil,government,32008902,EMUEF CORREGO DO XV,-18.6142,-40.6272,1.0,0,,Municipal,Rural,,,Sudeste,3,Espírito Santo,BR32,Vila Pavão,BR3205150,No
ce2f0f07-4f04-3044-8b29-4b8911065794,Brazil,government,32008929,EMUEF CORREGO SANTA FILOMENA,-18.6037,-40.5766,1.0,10,No,Municipal,Rural,No,0.0,Sudeste,3,Espírito Santo,BR32,Vila Pavão,BR3205150,No
c5f28769-4811-3bbf-978d-bd5d3e33c397,Brazil,government,32008937,EMUEF CORREGO SAO SEBASTIAO,-18.6464,-40.6565,1.0,9,No,Municipal,Rural,No,0.0,Sudeste,3,Espírito Santo,BR32,Vila Pavão,BR3205150,No
6dcf9156-1689-387e-86d3-aa70334c7793,Brazil,government,32008953,EPMEIEF ALTO CAPIM,-18.9576,-41.0342,1.0,48,No,Municipal,Rural,No,0.0,Sudeste,3,Espírito Santo,BR32,Alto Rio Novo,BR3200359,No
538cd2a5-8cbc-3cde-94cd-046a012f5dd4,Brazil,government,32009003,EPMEIEF CORREGO SAO PAULO,-19.0317,-41.0321,1.0,52,Yes,Municipal,Rural,No,0.0,Sudeste,3,Espírito Santo,BR32,Alto Rio Novo,BR3200359,No
933982a1-7a7e-312e-a083-8496e5634bc9,Brazil,government,32009011,EMEF VEREADOR RUBENS RAMIRO DA SILVA,-19.0693,-40.969,0.94,72,No,Municipal,Urban,Yes,5.0,Sudeste,3,Espírito Santo,BR32,Alto Rio Novo,BR3200359,Yes
5ffa1268-8208-39dd-ba17-6ceb678f684c,Brazil,government,32009020,EMEF GUSTAVO AMBRUST,-19.0547,-41.0149,1.0,238,Yes,Municipal,Urban,Yes,5.0,Sudeste,3,Espírito Santo,BR32,Alto Rio Novo,BR3200359,Yes
ce747957-1e3f-34a0-a92e-44c8bc89b72d,Brazil,government,32009038,EEEFM PASTOR ANTONIO NUNES DE CARVALHO,-19.0573,-41.0185,1.0,670,Yes,Estadual,Urban,Yes,5.0,Sudeste,3,Espírito Santo,BR32,Alto Rio Novo,BR3200359,Yes
a3fd2697-6110-3e28-8275-b20a78d9544b,Brazil,government,32009135,EUMEF CORREGO BEIJA-FLOR,-19.0898,-41.0005,1.0,6,No,Municipal,Rural,No,0.0,Sudeste,3,Espírito Santo,BR32,Alto Rio Novo,BR3200359,No
c1df880c-e01b-3635-adf8-f0dedb4e076b,Brazil,government,32009216,EPMEF FAZENDA SANTO ANTONIO,-18.9864,-40.9603,1.0,35,No,Municipal,Rural,No,0.0,Sudeste,3,Espírito Santo,BR32,Alto Rio Novo,BR3200359,No
22f861a2-c954-3323-a36b-a7f65cfcdfea,Brazil,government,32009259,EMEI ARMEZINA DO AMARAL RAMOS,-19.0595,-41.0161,1.0,123,No,Municipal,Urban,Yes,5.0,Sudeste,3,Espírito Santo,BR32,Alto Rio Novo,BR3200359,Yes
76e74125-752b-3f6c-9de3-1a1ac947b095,Brazil,government,32009267,EMEIEF PROF,-18.9574,-40.9744,1.0,171,No,Municipal,Urban,Yes,2.0,Sudeste,3,Espírito Santo,BR32,Alto Rio Novo,BR3200359,Yes
41b001c2-ebd1-3d94-b9c8-149d7a8a7b74,Brazil,government,32009321,CMEI DONA CHICA,-19.5154,-41.0026,1.0,86,No,Municipal,Urban,Yes,2.0,Sudeste,3,Espírito Santo,BR32,Baixo Guandu,BR3200805,Yes
e4ea9597-ab6c-36a9-a80c-37918bacdaef,Brazil,government,32009330,CMEI DONA ROSA,-19.5158,-41.0205,1.0,181,No,Municipal,Urban,Yes,2.0,Sudeste,3,Espírito Santo,BR32,Baixo Guandu,BR3200805,Yes
251e2b0e-da52-3a5e-9089-b247deab9c64,Brazil,government,32009348,CMEI DONA PAULA,-19.5083,-41.0281,1.0,134,No,Municipal,Urban,Yes,5.0,Sudeste,3,Espírito Santo,BR32,Baixo Guandu,BR3200805,Yes
ba7f4f79-55d4-3651-8baa-97d69c8e409f,Brazil,government,32009364,EMEIEF ALADIA TRINDADE PAIVA,-19.5045,-40.9148,1.0,84,Yes,Municipal,Urban,Yes,5.0,Sudeste,3,Espírito Santo,BR32,Baixo Guandu,BR3200805,Yes
7f29547c-ca0f-34e8-b1b0-1c1413756698,Brazil,government,32009372,EMEIEF BENEVENUTO CLEMENTINO GOBBO,-19.5188,-41.0114,1.0,565,Yes,Municipal,Urban,Yes,5.0,Sudeste,3,Espírito Santo,BR32,Baixo Guandu,BR3200805,Yes
10ab29e0-4fb8-3bd7-9e12-2350334d664d,Brazil,government,32009380,EEEF BRASIL,-19.5704,-40.9614,1.0,0,,Estadual,Urban,,,Sudeste,3,Espírito Santo,BR32,Baixo Guandu,BR3200805,Yes
5365b356-5991-33f0-9ebc-122274eaefeb,Brazil,government,32009402,EEEFM DR JONES DOS SANTOS NEVES,-19.5075,-41.0242,1.0,612,No,Estadual,Urban,Yes,5.0,Sudeste,3,Espírito Santo,BR32,Baixo Guandu,BR3200805,Yes
5e662485-73ee-37f1-9bf0-d5413e48d9b3,Brazil,government,32009410,EMEIEF GOVERNADOR LACERDA DE AGUIAR,-19.5074,-41.0252,1.0,274,No,Municipal,Urban,Yes,5.0,Sudeste,3,Espírito Santo,BR32,Baixo Guandu,BR3200805,Yes
8d5ca36e-da65-37a8-9a67-0255ff39171c,Brazil,government,32009437,EMEIEF PROFESSOR JOSE NUNES,-19.5135,-41.0137,1.0,329,Yes,Municipal,Urban,Yes,5.0,Sudeste,3,Espírito Santo,BR32,Baixo Guandu,BR3200805,Yes
72c858ef-e104-368e-be63-04da0174c6f3,Brazil,government,32009445,EMEIEF PROFESSORA LEA HOLZ,-19.5086,-41.0132,1.0,240,No,Municipal,Urban,Yes,5.0,Sudeste,3,Espírito Santo,BR32,Baixo Guandu,BR3200805,Yes
f7117d56-9bef-30d6-b22f-cad31386f70b,Brazil,government,32009461,EEEFM JOSE DAMASCENO FILHO,-19.5099,-41.0193,1.0,495,Yes,Estadual,Urban,Yes,5.0,Sudeste,3,Espírito Santo,BR32,Baixo Guandu,BR3200805,Yes
7fca76f9-7834-3385-8c5d-9831caab3cda,Brazil,government,32009500,CMEI COSME E DAMIAO,-19.5151,-41.0025,1.0,178,No,Municipal,Urban,Yes,2.0,Sudeste,3,Espírito Santo,BR32,Baixo Guandu,BR3200805,Yes
324a4dc0-4827-349b-8e86-17c2397b85de,Brazil,government,32009534,EMUEIEF IRMAOS ZANOTTI,-19.7144,-40.9477,1.0,5,No,Municipal,Rural,No,0.0,Sudeste,3,Espírito Santo,BR32,Baixo Guandu,BR3200805,No
97fcc6ea-db21-348c-aa9b-eb3afd513fc3,Brazil,government,32009550,EMEIEF JOAO XXIII,-19.5082,-41.0275,1.0,295,Yes,Municipal,Urban,Yes,5.0,Sudeste,3,Espírito Santo,BR32,Baixo Guandu,BR3200805,Yes
bf0300bb-811f-3596-94ba-62a808262680,Brazil,government,32009623,EEUEF CORREGO DA CONSOLACAO,-19.5704,-40.9614,1.0,0,,Estadual,Rural,,,Sudeste,3,Espírito Santo,BR32,Baixo Guandu,BR3200805,No
51268264-e8c8-3ea5-8b41-4764dac6a55f,Brazil,government,32009658,EMUEIEF ALTO PALMITAL,-19.6645,-40.9581,1.0,11,No,Municipal,Rural,No,0.0,Sudeste,3,Espírito Santo,BR32,Baixo Guandu,BR3200805,No
b4fa8d19-392d-3d93-9863-215223f7b10c,Brazil,government,32009666,EMUEIEF ARMANDO BATISTA VIOLA,-19.5604,-40.8514,1.0,6,No,Municipal,Rural,No,0.0,Sudeste,3,Espírito Santo,BR32,Baixo Guandu,BR3200805,No
d65cb019-3aab-3ff0-a233-486880de59bf,Brazil,government,32009704,EMEIEF PRESIDENTE KENNEDY,-19.5151,-41.0085,1.0,287,Yes,Municipal,Urban,Yes,2.0,Sudeste,3,Espírito Santo,BR32,Baixo Guandu,BR3200805,Yes
68b994e2-67af-3b0d-a80c-7f23709f7aa4,Brazil,government,32009712,EMEIEF JULIA DE CARVALHO FISCHER,-19.5134,-41.0222,1.0,328,Yes,Municipal,Urban,Yes,5.0,Sudeste,3,Espírito Santo,BR32,Baixo Guandu,BR3200805,Yes
b79ec0d8-99f6-335a-a411-1a19a89e7945,Brazil,government,32009720,EEUEF PALMITAL,-19.5704,-40.9614,1.0,0,,Estadual,Rural,,,Sudeste,3,Espírito Santo,BR32,Baixo Guandu,BR3200805,No
499ff6a6-f769-3365-9272-08a2db3128d2,Brazil,government,32009739,EMUEIEF QUEIXADA,-19.5461,-40.8856,1.0,8,No,Municipal,Rural,No,0.0,Sudeste,3,Espírito Santo,BR32,Baixo Guandu,BR3200805,No
f0d8d3fe-8797-30dd-8031-07f91badeccc,Brazil,government,32009755,EMUEIEF CABECEIRA DE SAO VICENTE,-19.2911,-40.9181,1.0,6,No,Municipal,Rural,No,0.0,Sudeste,3,Espírito Santo,BR32,Baixo Guandu,BR3200805,No
099c75b4-aab7-3cd8-8d64-159e7d144d23,Brazil,government,32009763,EMUEIEF KM 25 DO MUTUM,-19.3166,-40.9003,1.0,10,No,Municipal,Rural,No,0.0,Sudeste,3,Espírito Santo,BR32,Baixo Guandu,BR3200805,No
bec5c4ea-9779-3c04-ade8-a96c25775fc2,Brazil,government,32009771,EMEF FRANCISCO DA CUNHA RAMALDES,-19.2758,-40.9093,1.0,208,Yes,Municipal,Urban,Yes,5.0,Sudeste,3,Espírito Santo,BR32,Baixo Guandu,BR3200805,Yes
cbc891fb-646b-3a6d-a299-1f0b4ef34d43,Brazil,government,32009798,EMUEIEF ALTO MUTUM CLARO,-19.5704,-40.9614,0.67,8,No,Municipal,Rural,No,0.0,Sudeste,3,Espírito Santo,BR32,Baixo Guandu,BR3200805,No
45b9365e-6850-3b80-a094-ad057da08751,Brazil,government,32009836,EEUEF KM 20 DO MUTUM,-19.3081,-40.8906,1.0,0,,Estadual,Rural,,,Sudeste,3,Espírito Santo,BR32,Baixo Guandu,BR3200805,No
ef15a965-1cf7-34fe-89ab-09910372c43c,Brazil,government,32009844,EMUEIEF BARRO BRANCO,-19.3081,-40.8906,1.0,0,,Municipal,Rural,,,Sudeste,3,Espírito Santo,BR32,Baixo Guandu,BR3200805,No
75874dd5-20ed-34ac-8796-14faafe43d33,Brazil,government,32009852,EMUEIEF BOA VISTA,-19.3374,-40.9212,1.0,5,No,Municipal,Rural,No,0.0,Sudeste,3,Espírito Santo,BR32,Baixo Guandu,BR3200805,No
b6f718b2-47a1-3d49-bdca-49a75df594a6,Brazil,government,32009860,EU MUL CORREGO DA BOA SORTE,-19.3081,-40.8906,1.0,0,,Municipal,Rural,,,Sudeste,3,Espírito Santo,BR32,Baixo Guandu,BR3200805,No
1a5fcc60-6531-30c2-a16c-7e0754463d3d,Brazil,government,32009879,EMUEIEF VISTA ALEGRE,-19.2869,-40.925,0.94,10,No,Municipal,Rural,No,0.0,Sudeste,3,Espírito Santo,BR32,Baixo Guandu,BR3200805,No
b40d0d1b-e718-3bc3-b801-b0b8e085ecb4,Brazil,government,32009895,EMEF OLGA MARTINELLI,-19.6906,-41.018,0.94,153,No,Municipal,Urban,Yes,5.0,Sudeste,3,Espírito Santo,BR32,Baixo Guandu,BR3200805,Yes
a3022aad-c470-31b1-85fa-e9846e7134ea,Brazil,government,32009909,EMUEIEF ALTO SANTA ROSA,-19.7458,-40.9961,1.0,3,No,Municipal,Rural,No,0.0,Sudeste,3,Espírito Santo,BR32,Baixo Guandu,BR3200805,No
3d170894-d468-3540-8702-0af2aaf62876,Brazil,government,32009917,EMUEIEF BARRA DE SANTA ROSA,-19.7309,-41.0487,1.0,15,No,Municipal,Rural,No,0.0,Sudeste,3,Espírito Santo,BR32,Baixo Guandu,BR3200805,No
2809715a-aa05-39a1-aef4-519b7d69a52a,Brazil,government,32009925,EEUEF BARRA DO CRISCIUMA,-19.7141,-41.0154,1.0,0,,Estadual,Rural,,,Sudeste,3,Espírito Santo,BR32,Baixo Guandu,BR3200805,No
e563e7b0-746a-3b00-96db-e66051336f13,Brazil,government,32009933,EEUEF DOIS IRMAOS,-19.5704,-40.9614,1.0,0,,Estadual,Rural,,,Sudeste,3,Espírito Santo,BR32,Baixo Guandu,BR3200805,No
0cefbb93-4d30-364c-ae1d-1221946d4197,Brazil,government,32009941,EMUEIEF FAZENDA SCARDUA,-19.7141,-41.0154,1.0,0,,Municipal,Rural,,,Sudeste,3,Espírito Santo,BR32,Baixo Guandu,BR3200805,No
2f90a6fe-be07-304f-a5d4-8a240e3296b4,Brazil,government,32009968,EMUEF CORREGO DO MONJOLO,-19.7141,-41.0154,1.0,0,,Municipal,Rural,,,Sudeste,3,Espírito Santo,BR32,Baixo Guandu,BR3200805,No
529cddee-2dd4-39b1-a80f-978246b9d785,Brazil,government,32009976,EMUEF CORREGO DO SAPE,-19.7141,-41.0154,1.0,0,,Municipal,Rural,,,Sudeste,3,Espírito Santo,BR32,Baixo Guandu,BR3200805,No
83184fd6-35bf-319e-91da-034d2fc433e5,Brazil,government,32009984,EMUEF KM 22 DO RIO GUANDU,-19.7141,-41.0154,1.0,0,,Municipal,Rural,,,Sudeste,3,Espírito Santo,BR32,Baixo Guandu,BR3200805,No
e7668cbe-39dd-36d3-a4ba-2d875b39fe3f,Brazil,government,32009992,EMUEIEF SANTA ROSA,-19.7766,-41.0134,1.0,18,No,Municipal,Rural,No,0.0,Sudeste,3,Espírito Santo,BR32,Baixo Guandu,BR3200805,No
6e54ef22-a9b8-3177-bd3d-1c82fb5536e0,Brazil,government,32010001,EMUEF VALAO DO BUGRE,-19.7141,-41.0154,1.0,0,,Municipal,Rural,,,Sudeste,3,Espírito Santo,BR32,Baixo Guandu,BR3200805,No
4899a33f-6760-3cd7-9cdb-b2ee03c74cf7,Brazil,government,32010010,EEUEF VARJAO,-19.7141,-41.0154,1.0,0,,Estadual,Rural,,,Sudeste,3,Espírito Santo,BR32,Baixo Guandu,BR3200805,No
4eab2606-0b5b-36a1-a2ab-a739ebd7e773,Brazil,government,32010028,EMEIEF PROF,-19.3985,-40.905,0.94,148,No,Municipal,Urban,Yes,5.0,Sudeste,3,Espírito Santo,BR32,Baixo Guandu,BR3200805,Yes
b99d5e7d-90f1-3633-a881-e7a24c383ee9,Brazil,government,32010052,EMUEIEF ALTO BATUTA,-19.5704,-40.9614,0.67,20,No,Municipal,Rural,No,0.0,Sudeste,3,Espírito Santo,BR32,Baixo Guandu,BR3200805,No
f0026fca-878b-3c0f-8876-f3edc809b6d2,Brazil,government,32010060,EMUEIEF ALTO JACUTINGA,-19.4122,-40.9362,1.0,17,No,Municipal,Rural,No,0.0,Sudeste,3,Espírito Santo,BR32,Baixo Guandu,BR3200805,No
d40fdc2d-a347-3846-bb35-0b4b38b2e15d,Brazil,government,32010079,EMUEF BARRA DO MUTUM,-19.5704,-40.9614,1.0,0,,Municipal,Rural,,,Sudeste,3,Espírito Santo,BR32,Baixo Guandu,BR3200805,No
aa39fa31-d1eb-34b4-a92a-ec9062954ad2,Brazil,government,32010087,EEUEF CABECEIRA DO DEZ,-19.5704,-40.9614,1.0,0,,Estadual,Rural,,,Sudeste,3,Espírito Santo,BR32,Baixo Guandu,BR3200805,No
57b1bc84-272c-3e3c-8ab1-b2821c1420c8,Brazil,government,32010095,EEUEF CORREGO DO BATUTA,-19.4356,-40.906,0.94,0,,Estadual,Rural,,,Sudeste,3,Espírito Santo,BR32,Baixo Guandu,BR3200805,No
89fe408e-5b63-3904-b443-17f83f402f00,Brazil,government,32010117,EMUEIEF CORREGO DO ONZE,-19.3959,-40.9042,1.0,0,,Municipal,Rural,,,Sudeste,3,Espírito Santo,BR32,Baixo Guandu,BR3200805,No
43d12615-3e92-350a-96d4-754c7e82582d,Brazil,government,32010125,EMUEIEF KM 4 DO MUTUM,-19.4356,-40.906,0.94,0,,Municipal,Rural,,,Sudeste,3,Espírito Santo,BR32,Baixo Guandu,BR3200805,No
a5ab3792-8918-3a0f-9cfb-a11540b439c4,Brazil,government,32010133,EEUEF KM 8 DO MUTUM,-19.3081,-40.8906,1.0,0,,Estadual,Rural,,,Sudeste,3,Espírito Santo,BR32,Baixo Guandu,BR3200805,No
9b92796e-f25d-373e-be80-972874229eca,Brazil,government,32010150,EMUEIEF CORREGO DO MAQUIJI,-19.4824,-40.8424,1.0,0,,Municipal,Rural,,,Sudeste,3,Espírito Santo,BR32,Baixo Guandu,BR3200805,No
aba8c64d-b0d1-3fe1-97d2-872be0421681,Brazil,government,32010168,EMUEF CORREGO DO OURO,-19.4356,-40.906,0.94,0,,Municipal,Rural,,,Sudeste,3,Espírito Santo,BR32,Baixo Guandu,BR3200805,No
043dacb8-48fa-32a5-b47a-866dbf33de71,Brazil,government,32010184,EEUEF BARRA DA LAGOA PRETA,-19.5704,-40.9614,1.0,0,,Estadual,Rural,,,Sudeste,3,Espírito Santo,BR32,Baixo Guandu,BR3200805,No
1d21f21b-0599-35c0-ac65-4856277176ae,Brazil,government,32010192,EMEIEF CARLOS LUIZ FREDERICO,-19.6871,-41.1257,1.0,184,No,Municipal,Urban,Yes,5.0,Sudeste,3,Espírito Santo,BR32,Baixo Guandu,BR3200805,Yes
9560ab42-c60d-30db-a9a5-ee272ea566c0,Brazil,government,32010222,EMUEIEF AGUA LIMPA,-19.7737,-41.0982,1.0,0,,Municipal,Rural,,,Sudeste,3,Espírito Santo,BR32,Baixo Guandu,BR3200805,No
c44d7f12-8533-3cc3-85e2-4814604f2ea4,Brazil,government,32010265,EMUEF BANANALZINHO,-19.6999,-41.1174,1.0,0,,Municipal,Rural,,,Sudeste,3,Espírito Santo,BR32,Baixo Guandu,BR3200805,No
95e16694-e237-397a-8e5d-e3727c53c37a,Brazil,government,32010273,EMUEF CORREGO DO MAMBRUQUE,-19.6999,-41.1174,1.0,0,,Municipal,Rural,,,Sudeste,3,Espírito Santo,BR32,Baixo Guandu,BR3200805,No
77f446b3-9213-3b5f-b133-ad8183c4b2c5,Brazil,government,32010303,CEEJA PEDRO ANTONIO VITALI,-19.5427,-40.6373,1.0,947,No,Estadual,Urban,Yes,5.0,Sudeste,3,Espírito Santo,BR32,Colatina,BR3201506,Yes
8a414a2e-f1f0-3244-8b41-b1a5be265885,Brazil,government,32010320,CEIM ANJO DA GUARDA,-19.5354,-40.6238,1.0,103,No,Municipal,Urban,Yes,5.0,Sudeste,3,Espírito Santo,BR32,Colatina,BR3201506,Yes
13994809-d223-3d8a-9b86-a77ced984898,Brazil,government,32010346,CEIM NOSSA SENHORA DA PENHA,-19.5284,-40.6633,1.0,267,No,Municipal,Urban,Yes,5.0,Sudeste,3,Espírito Santo,BR32,Colatina,BR3201506,Yes
edd76e77-c3a8-30dd-b10a-2c410cf6f0e6,Brazil,government,32010354,CRECHE MUL SAGRADA FAMILIA,-19.5437,-40.6353,1.0,152,No,Municipal,Urban,Yes,5.0,Sudeste,3,Espírito Santo,BR32,Colatina,BR3201506,Yes
ec568511-fceb-368c-affb-e13ff653226f,Brazil,government,32010362,CEIM SANTO ANTONIO,-19.5203,-40.6546,1.0,257,No,Municipal,Urban,Yes,5.0,Sudeste,3,Espírito Santo,BR32,Colatina,BR3201506,Yes
846277a1-68a9-34b0-9a64-86dcc241bee0,Brazil,government,32010370,CEIM VICENTE DE PAULO,-19.5336,-40.6212,1.0,171,No,Municipal,Urban,Yes,5.0,Sudeste,3,Espírito Santo,BR32,Colatina,BR3201506,Yes
2b5be8c3-e9e1-3b7c-abd5-28ce8ce428a3,Brazil,government,32010389,CEIM VISTA DA SERRA,-19.5491,-40.6205,1.0,73,No,Municipal,Urban,Yes,5.0,Sudeste,3,Espírito Santo,BR32,Colatina,BR3201506,Yes
c5e6ab20-bcab-379a-94f0-3c555a90fc1b,Brazil,government,32010397,CEIM NOSSA SENHORA APARECIDA,-19.5269,-40.6391,1.0,343,No,Municipal,Urban,Yes,5.0,Sudeste,3,Espírito Santo,BR32,Colatina,BR3201506,Yes
3dc3824e-7569-34cf-a1e7-8ffdf02fb884,Brazil,government,32010419,EP MUL QUINZE DE OUTUBRO,-19.4578,-40.6949,1.0,81,Yes,Municipal,Urban,Yes,5.0,Sudeste,3,Espírito Santo,BR32,Colatina,BR3201506,Yes
c8e8934a-89e8-38a8-aac6-bee26e72f833,Brazil,government,32010435,EP MUL ROTARY CLUB,-19.5435,-40.6688,1.0,37,Yes,Municipal,Urban,Yes,5.0,Sudeste,3,Espírito Santo,BR32,Colatina,BR3201506,Yes
3be010a9-873e-3a6c-9a6f-b01db8ace62c,Brazil,government,32010460,EMEF AMELIO FORECHI,-19.5212,-40.6577,1.0,447,Yes,Municipal,Urban,Yes,5.0,Sudeste,3,Espírito Santo,BR32,Colatina,BR3201506,Yes
12bbd1be-b562-30ed-891f-776802b056a2,Brazil,government,32010478,EMEF ANTONIO NICCHIO,-19.5264,-40.6315,1.0,518,Yes,Municipal,Urban,Yes,5.0,Sudeste,3,Espírito Santo,BR32,Colatina,BR3201506,Yes
8777504e-b87e-3011-8f3f-cd9318b569e0,Brazil,government,32010486,EEEFM ARISTIDES FREIRE,-19.5345,-40.6285,1.0,649,Yes,Estadual,Urban,Yes,5.0,Sudeste,3,Espírito Santo,BR32,Colatina,BR3201506,Yes
11427a3c-72f1-347f-9541-88791843dbc5,Brazil,government,32010516,EMEF CEL VIRGINIO CALMON,-19.5526,-40.6352,1.0,373,Yes,Municipal,Urban,Yes,5.0,Sudeste,3,Espírito Santo,BR32,Colatina,BR3201506,Yes
dda88dd2-a8f7-35cd-a2ee-ea44af2ec24a,Brazil,government,32010524,EMEF CLERES MARTINS MOREIRA,-19.5331,-40.6216,1.0,339,Yes,Municipal,Urban,Yes,5.0,Sudeste,3,Espírito Santo,BR32,Colatina,BR3201506,Yes
b1ce490b-d0af-3518-9ec0-b38ca9f54671,Brazil,government,32010532,EMEF DR CARLOS GERMANO NAUMANN,-19.546,-40.6351,0.94,246,Yes,Municipal,Urban,Yes,5.0,Sudeste,3,Espírito Santo,BR32,Colatina,BR3201506,Yes
cbaf4ccf-d22a-3a58-b9fe-6399c7272aa0,Brazil,government,32010540,EMEF DR OCTAVIO MANHAES DE ANDRADE,-19.5398,-40.6386,1.0,636,Yes,Municipal,Urban,Yes,5.0,Sudeste,3,Espírito Santo,BR32,Colatina,BR3201506,Yes
4b125dbb-d898-3e05-bec3-41260ce69069,Brazil,government,32010559,EMEF DR RAUL GIUBERTI,-19.5118,-40.6189,1.0,327,Yes,Municipal,Urban,Yes,5.0,Sudeste,3,Espírito Santo,BR32,Colatina,BR3201506,Yes
c3020571-1405-346e-a9bd-9691feac2611,Brazil,government,32010567,EMEF DR UBALDO RAMALHETE,-19.5148,-40.6395,1.0,289,Yes,Municipal,Urban,Yes,5.0,Sudeste,3,Espírito Santo,BR32,Colatina,BR3201506,Yes
5b9f7034-da76-3868-a458-325a52b97d7b,Brazil,government,32010583,EMEF EUGENIO MENEGHELLI,-19.5268,-40.6385,1.0,354,Yes,Municipal,Urban,Yes,5.0,Sudeste,3,Espírito Santo,BR32,Colatina,BR3201506,Yes
32b1d92e-fc37-3265-8adb-7d4a87eb3a6d,Brazil,government,32010591,EMEF FERRUCIO FORRECHI,-19.4868,-40.6729,1.0,366,Yes,Municipal,Urban,Yes,5.0,Sudeste,3,Espírito Santo,BR32,Colatina,BR3201506,Yes
014fa0bf-c6fb-3c13-a18e-5bcaf94916f2,Brazil,government,32010605,EMEF FREI ISAIAS LEGGIO DA RAGUSA,-19.5283,-40.6442,1.0,273,Yes,Municipal,Urban,Yes,5.0,Sudeste,3,Espírito Santo,BR32,Colatina,BR3201506,Yes
b2388b25-1e83-349b-bff7-88b633939c46,Brazil,government,32010613,EMEF GODOFREDO CHAVES BAIAO,-19.5212,-40.5767,0.67,66,No,Municipal,Urban,Yes,5.0,Sudeste,3,Espírito Santo,BR32,Colatina,BR3201506,Yes
16d520cf-e28f-35ea-bcb0-7e38fdb5a190,Brazil,government,32010621,EMEF HUMBERTO DE CAMPOS,-19.5388,-40.6271,1.0,214,Yes,Municipal,Urban,Yes,5.0,Sudeste,3,Espírito Santo,BR32,Colatina,BR3201506,Yes
416e91a5-be49-3b0d-a79d-a95982623cb6,Brazil,government,32010630,EMEF JOSE FACHETTI,-19.5181,-40.6218,1.0,260,Yes,Municipal,Urban,Yes,5.0,Sudeste,3,Espírito Santo,BR32,Colatina,BR3201506,Yes
7d527f36-2562-3c95-a9c4-c8c929ac97b5,Brazil,government,32010648,EEEFM LIONS CLUB DE COLATINA,-19.5434,-40.6285,1.0,611,Yes,Estadual,Urban,Yes,5.0,Sudeste,3,Espírito Santo,BR32,Colatina,BR3201506,Yes
709708d8-0043-35f4-a349-ea1a32cba254,Brazil,government,32010656,EMEF LUIZ DALLA BERNARDINA,-19.5363,-40.6236,1.0,274,Yes,Municipal,Urban,Yes,5.0,Sudeste,3,Espírito Santo,BR32,Colatina,BR3201506,Yes
809f28b7-c4c9-3522-9ec4-a6b52477d771,Brazil,government,32010664,EMEF MARIA DA LUZ GOTTI,-19.5169,-40.6527,1.0,555,Yes,Municipal,Urban,Yes,5.0,Sudeste,3,Espírito Santo,BR32,Colatina,BR3201506,Yes
0590c322-ed47-38dd-8941-26436e6e246a,Brazil,government,32010672,EMEF PROF MATILDE GUERRA COMERIO,-19.5223,-40.6481,1.0,660,Yes,Municipal,Urban,Yes,5.0,Sudeste,3,Espírito Santo,BR32,Colatina,BR3201506,Yes
24942862-7fcc-38d2-9001-1df7cf8c98f8,Brazil,government,32010680,EMEF OSEAS RANGEL DE AMORIM,-19.5301,-40.6196,1.0,200,Yes,Municipal,Urban,Yes,5.0,Sudeste,3,Espírito Santo,BR32,Colatina,BR3201506,Yes
3fe5db50-f962-3761-9865-f6246db7b2ec,Brazil,government,32010699,EEEFM PROFESSORA NEA MONTEIRO COSTA,-19.528,-40.6624,0.94,561,Yes,Estadual,Urban,Yes,5.0,Sudeste,3,Espírito Santo,BR32,Colatina,BR3201506,Yes
b9b6e6f0-c6db-3559-9560-63e013d55038,Brazil,government,32010702,CEEMTI CONDE DE LINHARES,-19.5337,-40.6269,1.0,296,Yes,Estadual,Urban,Yes,5.0,Sudeste,3,Espírito Santo,BR32,Colatina,BR3201506,Yes
183d67d7-e241-36ec-b489-d14f99651ca0,Brazil,government,32010710,EEEFM GERALDO VARGAS NOGUEIRA,-19.5273,-40.632,0.94,1168,Yes,Estadual,Urban,Yes,5.0,Sudeste,3,Espírito Santo,BR32,Colatina,BR3201506,Yes
f4083a3d-d111-3ae7-bbb9-3e574784e531,Brazil,government,32010729,EEEFM HONORIO FRAGA,-19.5225,-40.6363,1.0,958,Yes,Estadual,Urban,Yes,5.0,Sudeste,3,Espírito Santo,BR32,Colatina,BR3201506,Yes
20961216-6520-3675-85fc-633187e81f01,Brazil,government,32010745,EEEFM PROF,-19.5197,-40.6474,1.0,743,Yes,Estadual,Urban,Yes,5.0,Sudeste,3,Espírito Santo,BR32,Colatina,BR3201506,Yes
ee18433a-630f-30e0-84cd-8e591fdbfb10,Brazil,government,32010753,EEEFM RUBENS RANGEL,-19.5385,-40.6344,1.0,606,Yes,Estadual,Urban,Yes,5.0,Sudeste,3,Espírito Santo,BR32,Colatina,BR3201506,Yes
2df4cf8b-dfa2-3f01-9c9d-48bf6d624e3b,Brazil,government,32010800,IFES - CAMPUS COLATINA,-19.5203,-40.6143,1.0,642,Yes,Federal,Urban,Yes,5.0,Sudeste,3,Espírito Santo,BR32,Colatina,BR3201506,Yes
e03fb744-7cce-3f7f-bc42-e848f9baa07e,Brazil,government,32010877,EU MUL CASCATINHA,-19.371,-40.6974,0.94,12,No,Municipal,Rural,No,0.0,Sudeste,3,Espírito Santo,BR32,Colatina,BR3201506,No
2d39bbd8-7377-37a6-abd9-6bad06db4931,Brazil,government,32010893,EU MUL CORREGO CASCATINHA,-19.4735,-40.7071,1.0,11,No,Municipal,Rural,Yes,5.0,Sudeste,3,Espírito Santo,BR32,Colatina,BR3201506,Yes
fa10978f-0036-3b5e-b1c4-507e3b56245c,Brazil,government,32010966,EP MUL PONTE DO PANCAS,-19.4238,-40.6877,1.0,58,Yes,Municipal,Rural,Yes,5.0,Sudeste,3,Espírito Santo,BR32,Colatina,BR3201506,Yes
2650769b-840d-36ac-9aa6-5a1a5a53d7b6,Brazil,government,32010982,EU MUL SANTO ANTONIO,-19.4456,-40.5906,1.0,12,No,Municipal,Rural,No,0.0,Sudeste,3,Espírito Santo,BR32,Colatina,BR3201506,Yes
387d4120-b94f-33f4-acf1-7100459365c9,Brazil,government,32010990,EU MUL SAO JOSE,-19.564,-40.7158,0.94,7,No,Municipal,Rural,No,0.0,Sudeste,3,Espírito Santo,BR32,Colatina,BR3201506,No
eff122a6-e091-33b3-83f9-b0ca558cebdb,Brazil,government,32011008,EU MUL SAO SALVADOR,-19.4188,-40.7171,1.0,20,No,Municipal,Rural,Yes,5.0,Sudeste,3,Espírito Santo,BR32,Colatina,BR3201506,Yes
c3d6127e-c880-3a1b-b82f-77d106075cea,Brazil,government,32011067,PE MUL CARLOS ROBERTO MENEGATTI,-19.5215,-40.6396,1.0,346,Yes,Municipal,Urban,Yes,5.0,Sudeste,3,Espírito Santo,BR32,Colatina,BR3201506,Yes
5e87a373-cf85-3a1e-9a36-231d5c35f5e7,Brazil,government,32011075,PE MUL MARCELO CORREA,-19.537,-40.6326,0.94,227,No,Municipal,Urban,Yes,5.0,Sudeste,3,Espírito Santo,BR32,Colatina,BR3201506,Yes
418e593b-86b9-3af8-8ffc-7174889e435a,Brazil,government,32011091,PE MUL LUIZ DALLA BERNARDINA,-19.5425,-40.6288,1.0,89,No,Municipal,Urban,Yes,5.0,Sudeste,3,Espírito Santo,BR32,Colatina,BR3201506,Yes
1e6b1866-4ea2-3a8b-9995-ba42787343c9,Brazil,government,32011113,CEIM PERNALONGA,-19.513,-40.6207,0.94,370,No,Municipal,Urban,Yes,5.0,Sudeste,3,Espírito Santo,BR32,Colatina,BR3201506,Yes
d2a8ddea-0cd7-33b6-a241-8494eae4f05e,Brazil,government,32011130,CEIM PADRE JOSE BERTOLLO,-19.5503,-40.6293,1.0,298,No,Municipal,Urban,Yes,5.0,Sudeste,3,Espírito Santo,BR32,Colatina,BR3201506,Yes
0f2c0e36-eea6-3ac6-97b0-0625f314e0aa,Brazil,government,32011288,EMCOR PADRE FULGENCIO DO MENINO JESUS,-19.3101,-40.6868,1.0,227,Yes,Municipal,Rural,Yes,5.0,Sudeste,3,Espírito Santo,BR32,Colatina,BR3201506,Yes
4f61f414-3789-37a4-9e7d-d277c6d34b59,Brazil,government,32011393,EP MUL POVOACAO DE BAUNILHA,-19.6283,-40.552,0.94,23,No,Municipal,Rural,No,0.0,Sudeste,3,Espírito Santo,BR32,Colatina,BR3201506,Yes
dd92ef91-73bb-3fd5-b215-0aa0debdffff,Brazil,government,32011407,EMEF PROFESSORA LUIZA CREMA,-19.5712,-40.5061,1.0,290,Yes,Municipal,Urban,Yes,5.0,Sudeste,3,Espírito Santo,BR32,Colatina,BR3201506,Yes
a9a013f4-013b-3c58-beb5-ec9123d63833,Brazil,government,32011539,EMEF ERNESTO CORRADI,-19.635,-40.6192,0.94,214,Yes,Municipal,Urban,Yes,5.0,Sudeste,3,Espírito Santo,BR32,Colatina,BR3201506,Yes
759ccb90-7fcb-3de5-9582-0f97c8a27f84,Brazil,government,32011555,EU MUL BARRA SECA,-19.6142,-40.7484,1.0,12,No,Municipal,Rural,No,0.0,Sudeste,3,Espírito Santo,BR32,Colatina,BR3201506,No
f5bf82cf-60e0-33f1-b47b-a08692e7ff6c,Brazil,government,32011571,EP MUL CORREGO SENADOR,-19.606,-40.6811,0.94,15,Yes,Municipal,Rural,Yes,5.0,Sudeste,3,Espírito Santo,BR32,Colatina,BR3201506,Yes
fab349bf-e478-3042-8eef-932e814cd884,Brazil,government,32011580,EMCOR FAZENDA PINOTTI,-19.5871,-40.7376,1.0,70,No,Municipal,Rural,No,0.0,Sudeste,3,Espírito Santo,BR32,Colatina,BR3201506,No
203450b7-8e57-36fb-aa42-728a4a647548,Brazil,government,32011628,EU MUL FAZENDA ZANOTELLI,-19.5708,-40.7439,1.0,5,No,Municipal,Rural,No,0.0,Sudeste,3,Espírito Santo,BR32,Colatina,BR3201506,No
606ff545-42d3-3b43-b5dc-1d5cfcdd0433,Brazil,government,32011636,EU MUL SANTO ANTONIO DO MUTUM,-19.665,-40.6081,0.94,10,Yes,Municipal,Rural,Yes,5.0,Sudeste,3,Espírito Santo,BR32,Colatina,BR3201506,Yes
0f6dd368-f120-3b6e-956b-b8d9db7f8ae3,Brazil,government,32011679,EUMEF CORREGO PARANA,-19.2627,-40.5209,1.0,7,No,Municipal,Rural,No,0.0,Sudeste,3,Espírito Santo,BR32,Governador Lindenberg,BR3202256,No
f5d9521f-b81c-3e03-9e91-04182e084300,Brazil,government,32011687,EMEIEF FAZENDA FEREGUETTI,-19.2032,-40.4991,1.0,35,No,Municipal,Rural,No,0.0,Sudeste,3,Espírito Santo,BR32,Governador Lindenberg,BR3202256,No
982ed1e2-5a28-3e7d-8f39-bc5e90ce4eda,Brazil,government,32011695,EMEF BELIZARIO GUSMAO,-19.2548,-40.4561,1.0,201,No,Municipal,Urban,Yes,5.0,Sudeste,3,Espírito Santo,BR32,Governador Lindenberg,BR3202256,Yes
a083a477-3c7e-3a01-92aa-de0745a06cc7,Brazil,government,32011709,EEEF DR MOACIR AVIDOS,-19.2358,-40.5115,1.0,260,No,Estadual,Urban,Yes,5.0,Sudeste,3,Espírito Santo,BR32,Governador Lindenberg,BR3202256,Yes
0a170b0b-06ee-39ce-a0a0-6d26d91ea4fa,Brazil,government,32011717,EEEFM PROFESSOR SANTOS PINTO,-19.2529,-40.4625,1.0,491,Yes,Estadual,Urban,Yes,5.0,Sudeste,3,Espírito Santo,BR32,Governador Lindenberg,BR3202256,Yes
cac3025f-ae8c-346c-b6b2-59ec1c1b8ab1,Brazil,government,32011733,EUMEF ALTO MOACIR,-19.2685,-40.4785,1.0,5,No,Municipal,Rural,No,0.0,Sudeste,3,Espírito Santo,BR32,Governador Lindenberg,BR3202256,No
3aa80966-63b0-3dee-b5cc-26c1e3a4cc09,Brazil,government,32011741,EEUEF BOM JESUS DA LAPA,-19.2088,-40.4449,1.0,0,,Estadual,Rural,,,Sudeste,3,Espírito Santo,BR32,Governador Lindenberg,BR3202256,No
26ba1d5b-8af7-31f0-960f-44fdf5684e49,Brazil,government,32011750,EUMEF CABECEIRA DO CORREGO BOLIVIA,-19.2218,-40.4478,1.0,14,No,Municipal,Rural,No,0.0,Sudeste,3,Espírito Santo,BR32,Governador Lindenberg,BR3202256,No
08b612d4-2047-397c-a382-d31805633828,Brazil,government,32011784,EUMEF CORREGO ORIENTE,-19.2375,-40.443,0.94,15,No,Municipal,Rural,Yes,5.0,Sudeste,3,Espírito Santo,BR32,Governador Lindenberg,BR3202256,No
fa659441-a1c8-3111-b8f5-62a2dcc072f8,Brazil,government,32011792,EUMEF CORREGO SERENO,-19.1499,-40.4031,1.0,10,No,Municipal,Rural,No,0.0,Sudeste,3,Espírito Santo,BR32,Governador Lindenberg,BR3202256,No
53af3834-3314-3eb4-ad2d-71fb28a9b977,Brazil,government,32011830,EUMEF FAZENDA IRMAOS BERNABE,-19.2669,-40.505,0.94,9,No,Municipal,Rural,No,0.0,Sudeste,3,Espírito Santo,BR32,Governador Lindenberg,BR3202256,No
15ea71d2-d301-3540-b1ab-61aff3711e42,Brazil,government,32011865,EUMEF CORREGO BAIA,-19.2684,-40.4786,1.0,7,No,Municipal,Rural,No,0.0,Sudeste,3,Espírito Santo,BR32,Governador Lindenberg,BR3202256,No
8fa69c91-cfd3-31fa-9325-6e7b997a0dd7,Brazil,government,32011873,EUMEF CORREGO BOLIVIA,-19.1988,-40.4366,1.0,12,No,Municipal,Rural,No,0.0,Sudeste,3,Espírito Santo,BR32,Governador Lindenberg,BR3202256,No
91cb403b-a245-3120-92c5-8f8c3ea405a0,Brazil,government,32011911,CEIM SAO JOSE,-19.2514,-40.4611,1.0,132,No,Municipal,Urban,Yes,5.0,Sudeste,3,Espírito Santo,BR32,Governador Lindenberg,BR3202256,Yes
20e5fc75-7ff4-3d00-bc21-e472111dbba4,Brazil,government,32011938,CEIM PICA PAU AMARELO,-19.2354,-40.5115,1.0,102,No,Municipal,Urban,Yes,5.0,Sudeste,3,Espírito Santo,BR32,Governador Lindenberg,BR3202256,Yes
0a72f022-791f-304d-b02b-9f5e7b93d172,Brazil,government,32011962,EMEF GRACA ARANHA,-19.316,-40.5967,0.94,158,Yes,Municipal,Urban,Yes,5.0,Sudeste,3,Espírito Santo,BR32,Colatina,BR3201506,Yes
65a4d244-bb09-32c7-aa20-17ffc695b574,Brazil,government,32011970,EU MUL ANCHIETA,-19.3513,-40.6547,1.0,15,No,Municipal,Rural,Yes,5.0,Sudeste,3,Espírito Santo,BR32,Colatina,BR3201506,Yes
469c25bc-8c74-3e65-865c-2923cb15655a,Brazil,government,32011989,EU MUL CORREGO JOAQUIM TAVORA,-19.3415,-40.5816,1.0,6,No,Municipal,Rural,No,0.0,Sudeste,3,Espírito Santo,BR32,Marilândia,BR3203353,No
ccbe3982-91ce-3d1a-91d2-847446f801a5,Brazil,government,32012004,EU MUL CORREGO DIAMANTE,-19.2933,-40.5549,1.0,0,,Municipal,Rural,,,Sudeste,3,Espírito Santo,BR32,Colatina,BR3201506,No
5db7b804-74e9-3fd3-acb2-724044f7788d,Brazil,government,32012047,EU MUL SAO VALENTIM,-19.3331,-40.5552,1.0,4,No,Municipal,Rural,No,0.0,Sudeste,3,Espírito Santo,BR32,Marilândia,BR3203353,No
66057017-3503-38fd-ab44-93042c4e40ab,Brazil,government,32012080,EP MUL CABECEIRA DE SAO PEDRO,-19.5175,-40.8045,0.67,22,No,Municipal,Rural,Yes,5.0,Sudeste,3,Espírito Santo,BR32,Colatina,BR3201506,Yes
33429177-fef0-35b8-854e-bd19c354261a,Brazil,government,32012098,EU MUL CORREGO DO ALMOCO,-19.5175,-40.8045,0.67,18,No,Municipal,Rural,No,0.0,Sudeste,3,Espírito Santo,BR32,Colatina,BR3201506,No
33b0659e-7e36-3f93-9dd7-c9ceed9aab08,Brazil,government,32012101,EU MUL FAZENDA NOSSA SRA APARECIDA,-19.3973,-40.7526,1.0,30,No,Municipal,Rural,Yes,5.0,Sudeste,3,Espírito Santo,BR32,Colatina,BR3201506,Yes
0973a223-5d59-3abf-ac36-e15c2cb34770,Brazil,government,32012110,EP MUL JEQUITIBA,-19.3268,-40.7927,1.0,6,No,Municipal,Rural,No,0.0,Sudeste,3,Espírito Santo,BR32,Colatina,BR3201506,No
5ecbba74-ce81-3e0c-ac1d-c5d32b5b9935,Brazil,government,32012128,EP MUL JOSE FAQUINOTTI,-19.4721,-40.774,0.94,8,Yes,Municipal,Rural,No,0.0,Sudeste,3,Espírito Santo,BR32,Colatina,BR3201506,Yes
74f1369e-810f-3cb2-89c3-777c7662ee86,Brazil,government,32012136,EP MUL MIGUEL GEGESKI,-19.4539,-40.7304,1.0,9,No,Municipal,Rural,No,0.0,Sudeste,3,Espírito Santo,BR32,Colatina,BR3201506,No
1b33401d-86b3-38f1-a2a0-f9cccba7a017,Brazil,government,32012144,EMEF MARIA ORTIZ,-19.5333,-40.8133,1.0,192,Yes,Municipal,Urban,Yes,5.0,Sudeste,3,Espírito Santo,BR32,Colatina,BR3201506,Yes
2d1fdf6a-59aa-3e92-8304-ce9eef04502c,Brazil,government,32012152,IFES - CAMPUS ITAPINA,-19.4978,-40.7609,1.0,550,Yes,Federal,Rural,Yes,5.0,Sudeste,3,Espírito Santo,BR32,Colatina,BR3201506,Yes
f1afd915-8c37-3766-89dc-05331615f8c7,Brazil,government,32012160,EU MUL BARRA DE SAO PEDRO,-19.4446,-40.8166,1.0,4,No,Municipal,Rural,No,0.0,Sudeste,3,Espírito Santo,BR32,Colatina,BR3201506,No
c2bd1053-284a-3d79-92e0-db5f4179c42c,Brazil,government,32012187,EU MUL CABECEIRA DE MONTE BELO,-19.3701,-40.7868,1.0,21,No,Municipal,Rural,Yes,5.0,Sudeste,3,Espírito Santo,BR32,Colatina,BR3201506,Yes
71072903-0c24-3a01-9bbc-2f4418fa8792,Brazil,government,32012209,EU MUL CORREGO SANTANA,-19.4249,-40.767,0.94,8,No,Municipal,Rural,No,0.0,Sudeste,3,Espírito Santo,BR32,Colatina,BR3201506,No
a81ca728-cd60-3695-a5d5-29f0e991a921,Brazil,government,32012241,EU MUL AURELIO PRETTI,-19.3114,-40.7735,1.0,21,No,Municipal,Rural,Yes,5.0,Sudeste,3,Espírito Santo,BR32,Colatina,BR3201506,Yes
0e0b0d50-b341-35bd-a023-60a96f03cb07,Brazil,government,32012250,EU MUL FAZENDA MISTERIOSA,-19.4507,-40.8413,1.0,12,No,Municipal,Rural,Yes,5.0,Sudeste,3,Espírito Santo,BR32,Colatina,BR3201506,Yes
80876c19-123e-3800-8d7f-6acfbb02f148,Brazil,government,32012268,EU MUL FAZENDA RIVA,-19.4676,-40.8143,1.0,10,No,Municipal,Rural,No,0.0,Sudeste,3,Espírito Santo,BR32,Colatina,BR3201506,No
b4ea15f2-cddc-30c7-bcf4-660d376b6437,Brazil,government,32012276,EU MUL FAZENDA ZANETTI,-19.3701,-40.7401,1.0,9,No,Municipal,Rural,Yes,5.0,Sudeste,3,Espírito Santo,BR32,Colatina,BR3201506,Yes
3f6fa1c6-44ea-3b69-ae05-4ab1a84c49da,Brazil,government,32012292,EU MUL METODISTA,-19.4956,-40.7878,1.0,19,No,Municipal,Rural,Yes,5.0,Sudeste,3,Espírito Santo,BR32,Colatina,BR3201506,Yes
9e6f2e36-f8c1-3e77-b174-31394d71f651,Brazil,government,32012306,EU MUL MONTE ALVERNE,-19.3552,-40.7957,1.0,8,No,Municipal,Rural,No,0.0,Sudeste,3,Espírito Santo,BR32,Colatina,BR3201506,No
d3ba3e20-9f87-3ebd-b05b-475263bc9c72,Brazil,government,32012314,EU MUL CORREGO DA PUAIA,-19.4948,-40.7186,1.0,0,,Municipal,Rural,,,Sudeste,3,Espírito Santo,BR32,Colatina,BR3201506,No
200ce900-b474-3fee-94ee-a0cbc54901c0,Brazil,government,32012322,EU MUL NOSSA SENHORA DAS GRACAS,-19.5842,-40.7718,1.0,12,No,Municipal,Rural,No,0.0,Sudeste,3,Espírito Santo,BR32,Colatina,BR3201506,Yes
87728425-a3d9-3235-b0ad-1f700d99b975,Brazil,government,32012330,EU MUL SANTO ANTONIO,-19.5175,-40.8045,1.0,0,,Municipal,Rural,,,Sudeste,3,Espírito Santo,BR32,Colatina,BR3201506,No
49b78366-db80-383a-97ae-9405cd5e327b,Brazil,government,32012365,EU MUL SANTA CRUZ,-19.5175,-40.8045,0.67,14,No,Municipal,Rural,Yes,5.0,Sudeste,3,Espírito Santo,BR32,Colatina,BR3201506,Yes
d05e15e7-884d-301b-a7ca-32ae8289dd25,Brazil,government,32012373,EMCOR SAO JOAO PEQUENO,-19.3481,-40.7533,1.0,190,Yes,Municipal,Rural,Yes,5.0,Sudeste,3,Espírito Santo,BR32,Colatina,BR3201506,Yes
7e39b059-5255-3c14-a6ee-45f4754db8d1,Brazil,government,32012381,EU MUL VIUVA BINDA,-19.5175,-40.8045,0.67,12,No,Municipal,Rural,Yes,5.0,Sudeste,3,Espírito Santo,BR32,Colatina,BR3201506,No
4e972f20-abe6-3600-b110-f4483817ade1,Brazil,government,32012403,CEIM NOVO BRASIL,-19.2238,-40.5936,1.0,112,No,Municipal,Urban,Yes,5.0,Sudeste,3,Espírito Santo,BR32,Governador Lindenberg,BR3202256,Yes
96af70f1-378f-33d9-8610-13f993b4f484,Brazil,government,32012411,EUMEF BAIXO MOACIR,-19.1098,-40.3949,1.0,8,No,Municipal,Rural,No,0.0,Sudeste,3,Espírito Santo,BR32,Governador Lindenberg,BR3202256,No
d73c5449-b5e5-33fc-b74c-88191aaaa6d8,Brazil,government,32012420,EEEFM IRINEU MORELLO,-19.1415,-40.4671,1.0,278,Yes,Estadual,Rural,Yes,5.0,Sudeste,3,Espírito Santo,BR32,Governador Lindenberg,BR3202256,Yes
50e3a342-291a-3271-a552-431b41a6747e,Brazil,government,32012438,EEEFM PROF CARLOS MENDES,-19.225,-40.5933,0.94,308,Yes,Estadual,Urban,Yes,5.0,Sudeste,3,Espírito Santo,BR32,Governador Lindenberg,BR3202256,Yes
0d8d359c-c070-3d99-953c-3c33f44f4585,Brazil,government,32012454,EUMEF BARRA DE SAO JOAO DO MOACIR,-19.0953,-40.3805,1.0,6,No,Municipal,Rural,No,0.0,Sudeste,3,Espírito Santo,BR32,Governador Lindenberg,BR3202256,No
0be3185f-ac62-3c92-8b6b-406c211df9f1,Brazil,government,32012462,EEUEF CORREGO BEIJA FLOR,-19.2088,-40.4449,1.0,0,,Estadual,Rural,,,Sudeste,3,Espírito Santo,BR32,Governador Lindenberg,BR3202256,No
558d41d1-b66b-36fa-a802-1531764e6094,Brazil,government,32012489,EEUEF CORREGO DA SAUDE,-19.2088,-40.4449,1.0,0,,Estadual,Rural,,,Sudeste,3,Espírito Santo,BR32,Governador Lindenberg,BR3202256,No
