uuid,country,source,source_school_id,school_name,latitude,longitude,dq_score,student_count,computer_availability,school_type,school_region,internet_availability,internet_speed_Mbps,region,region_code,state,state_code,city,city_code,internet_availability_prediction
43ce3243-cade-3321-81e2-c3c02a4de153,Brazil,government,51000814,EMIEB CRAVARI,-12.626,-57.9329,0.61,61,No,Municipal,Rural,Yes,5.0,Centro-Oeste,5,Mato Grosso,BR51,Brasnorte,BR5101902,Yes
152bb1ef-954e-366b-a38b-e73af0cada02,Brazil,government,51000822,EMIEB ALIA DO PAREDAO,-12.626,-57.9329,0.94,0,,Municipal,Rural,,,Centro-Oeste,5,Mato Grosso,BR51,Brasnorte,BR5101902,No
e5642887-439d-3bb6-88c6-15bc1fef2fe8,Brazil,government,51020351,ESCOLA MUNICIPAL DE ENS FUNDAMENTAL SAO JOAO,-10.3335,-50.7928,0.67,147,Yes,Municipal,Rural,Yes,5.0,Centro-Oeste,5,Mato Grosso,BR51,Santa Terezinha,BR5107776,Yes
166f70a6-4e06-306b-8ee4-6b581fde955f,Brazil,government,51000016,EMCARLOS POMPERMAYER,-13.0567,-59.4158,0.67,144,No,Municipal,Rural,No,0.0,Centro-Oeste,5,Mato Grosso,BR51,Comodoro,BR5103304,Yes
88c933fd-3322-3977-a198-15bd9464267f,Brazil,government,51000113,ESCOLA MUNICIPAL DE 1,-10.4625,-61.0101,0.67,76,No,Municipal,Rural,Yes,5.0,Centro-Oeste,5,Mato Grosso,BR51,Rondolândia,BR5107578,Yes
6e254548-a76e-3303-ad69-613589747fe7,Brazil,government,51000121,EM DEOCLIDES DE MACEDO,-10.1876,-59.8393,0.67,231,Yes,Municipal,Rural,Yes,5.0,Centro-Oeste,5,Mato Grosso,BR51,Aripuanã,BR5101407,Yes
114b8e6b-1b97-341b-92a6-575312214083,Brazil,government,51000172,EM GOVERNADOR FRAGELLI,-10.351,-58.8652,0.94,45,No,Municipal,Rural,Yes,5.0,Centro-Oeste,5,Mato Grosso,BR51,Aripuanã,BR5101407,Yes
8d0d3620-566e-3c1e-8a2a-2c381f0666e2,Brazil,government,51000202,ESCOLA MUNICIPAL RIBEIRINHA IRMA LEONILDA PIOVEZAN,-9.262,-59.5863,0.61,50,No,Municipal,Rural,Yes,2.0,Centro-Oeste,5,Mato Grosso,BR51,Colniza,BR5103254,Yes
f6b8acdd-f553-3eba-ae09-6f2fc559e33c,Brazil,government,51000237,EM JOSE DE ALENCAR,-10.1876,-59.8393,0.67,51,No,Municipal,Rural,Yes,5.0,Centro-Oeste,5,Mato Grosso,BR51,Aripuanã,BR5101407,Yes
e338f848-19f2-3390-9db9-81ecfd13f1d8,Brazil,government,51000466,ESCOLA MUNICIPAL JOANA ALVES DE OLIVEIRA,-10.4625,-61.0101,0.67,95,No,Municipal,Rural,Yes,5.0,Centro-Oeste,5,Mato Grosso,BR51,Rondolândia,BR5107578,Yes
9042c18e-cb31-3068-8196-95d01d7ca057,Brazil,government,51000547,ESCOLA MUNICIPAL SAO JOSE OPERARIO,-10.188,-59.4481,0.94,149,Yes,Municipal,Urban,Yes,5.0,Centro-Oeste,5,Mato Grosso,BR51,Aripuanã,BR5101407,Yes
e42c6568-7843-3dad-a0a9-7d972a0832cd,Brazil,government,51000679,ESCOLA MUNICIPAL TIRADENTES,-10.1876,-59.8393,0.67,98,Yes,Municipal,Rural,Yes,5.0,Centro-Oeste,5,Mato Grosso,BR51,Aripuanã,BR5101407,Yes
3b2009a1-7f9b-363a-9a0c-b720475cd75d,Brazil,government,51000695,EE SAO FRANCISCO DE ASSIS,-10.1876,-59.8393,0.67,759,Yes,Estadual,Urban,Yes,2.0,Centro-Oeste,5,Mato Grosso,BR51,Aripuanã,BR5101407,Yes
2c38bc42-d697-390c-ba25-56f28f3dfae8,Brazil,government,51000709,EE BERNARDINO GOMES DA LUZ,-9.262,-59.5863,0.61,773,No,Estadual,Urban,Yes,5.0,Centro-Oeste,5,Mato Grosso,BR51,Colniza,BR5103254,Yes
7170a831-cf24-3f65-8799-325a7f71247e,Brazil,government,51000857,EMEB ADILSON JOSE SCHUMACHER,-11.8906,-58.383,0.94,115,Yes,Municipal,Rural,Yes,5.0,Centro-Oeste,5,Mato Grosso,BR51,Brasnorte,BR5101902,Yes
a892334a-31c6-3d06-bc49-16b726263f85,Brazil,government,51000938,EMEB MARIA CANDIDA DE LIMA,-12.626,-57.9329,0.61,146,Yes,Municipal,Rural,Yes,5.0,Centro-Oeste,5,Mato Grosso,BR51,Brasnorte,BR5101902,Yes
0081b18d-1c24-371e-b6c0-5099f8e004a5,Brazil,government,51000946,EMEB MUNDO NOVO,-12.626,-57.9329,0.61,92,No,Municipal,Rural,Yes,5.0,Centro-Oeste,5,Mato Grosso,BR51,Brasnorte,BR5101902,Yes
74cbb29e-bd3c-3c6c-b8a4-739fb215966f,Brazil,government,51000962,EMEB PASTOR,-12.1162,-58.0006,1.0,403,Yes,Municipal,Urban,Yes,5.0,Centro-Oeste,5,Mato Grosso,BR51,Brasnorte,BR5101902,Yes
bdc98c7c-36c2-3996-b6f9-100748462962,Brazil,government,51001047,EMEB TEREZINHA GONCALVES DA SILVA,-12.3292,-57.7392,1.0,162,No,Municipal,Rural,Yes,5.0,Centro-Oeste,5,Mato Grosso,BR51,Brasnorte,BR5101902,Yes
dd691b5c-56fd-35e9-bb12-4bd8ebeea284,Brazil,government,51001128,EE EWALDO MEYER RODERJAN,-12.626,-57.9329,0.61,973,Yes,Estadual,Urban,Yes,5.0,Centro-Oeste,5,Mato Grosso,BR51,Brasnorte,BR5101902,Yes
ce9ca70d-99c1-3fe3-848a-38aa936c7444,Brazil,government,51001136,EMEB 1,-12.1213,-58.0055,1.0,476,No,Municipal,Urban,Yes,5.0,Centro-Oeste,5,Mato Grosso,BR51,Brasnorte,BR5101902,Yes
3e7104ff-36f4-3407-aff4-021cc1f03706,Brazil,government,51001144,EMEB CEREJAL,-11.7031,-58.2617,1.0,108,Yes,Municipal,Rural,Yes,5.0,Centro-Oeste,5,Mato Grosso,BR51,Brasnorte,BR5101902,Yes
3fefd520-fc06-33f9-b60b-4e02ca576db5,Brazil,government,51001225,ERM JORGE AMADO,-10.9077,-58.8594,1.0,62,Yes,Municipal,Rural,Yes,2.0,Centro-Oeste,5,Mato Grosso,BR51,Castanheira,BR5102850,Yes
0ed67382-4458-3879-803a-a4e18f628fa2,Brazil,government,51001365,ERM GERMANO CHINIKOSKI,-10.9543,-58.6076,1.0,0,,Municipal,Rural,,,Centro-Oeste,5,Mato Grosso,BR51,Castanheira,BR5102850,No
ba187367-a125-320c-a1de-1782a9c77857,Brazil,government,51001608,ESCOLA MUNICIPAL CASTANHEIRA,-11.1409,-58.6063,1.0,370,Yes,Municipal,Urban,Yes,5.0,Centro-Oeste,5,Mato Grosso,BR51,Castanheira,BR5102850,Yes
4bd9d563-7d95-35c9-9578-7842be3e7719,Brazil,government,51001624,EE MARIA QUITERIA,-10.9543,-58.6076,0.67,709,Yes,Estadual,Urban,Yes,2.0,Centro-Oeste,5,Mato Grosso,BR51,Castanheira,BR5102850,Yes
07f07b06-91a7-37f2-a9d2-ce10fdf07632,Brazil,government,51001632,EE MARIA DA GLORIA VARGAS OCHOA,-9.5403,-58.6782,0.67,384,Yes,Estadual,Urban,Yes,5.0,Centro-Oeste,5,Mato Grosso,BR51,Cotriguaçu,BR5103379,Yes
3168039b-9c35-3760-b301-71e242d80e5f,Brazil,government,51001667,EM ALDOVANDRO DA ROCHA SILVA,-9.5403,-58.6782,0.67,162,No,Municipal,Rural,Yes,2.0,Centro-Oeste,5,Mato Grosso,BR51,Cotriguaçu,BR5103379,Yes
8956071e-d9f6-3bca-9e7c-df5f93fbdcea,Brazil,government,51001683,EM 07 DE SETEMBRO,-10.0676,-58.5608,1.0,230,Yes,Municipal,Rural,Yes,5.0,Centro-Oeste,5,Mato Grosso,BR51,Cotriguaçu,BR5103379,Yes
2b849f6e-314f-356b-af57-04cc925dc31b,Brazil,government,51001942,CEJA ALTERNATIVO,-11.5435,-59.4962,0.67,648,Yes,Estadual,Urban,Yes,5.0,Centro-Oeste,5,Mato Grosso,BR51,Juína,BR5105150,Yes
77b6fb15-d9ea-305d-9afc-50e0dc772fca,Brazil,government,51002086,ERM CORA CORALINA,-11.9206,-58.6284,1.0,13,No,Municipal,Rural,Yes,5.0,Centro-Oeste,5,Mato Grosso,BR51,Juína,BR5105150,Yes
7f363412-975a-35ec-bf30-94238fc10069,Brazil,government,51002124,ERM EUCLIDES DA CUNHA,-11.3727,-58.8963,1.0,60,Yes,Municipal,Rural,No,0.0,Centro-Oeste,5,Mato Grosso,BR51,Juína,BR5105150,No
5dabefd2-aee2-343d-bcd3-22b49dba73c8,Brazil,government,51002213,CEI ARCO-IRIS,-11.4157,-58.7451,1.0,184,No,Municipal,Urban,Yes,2.0,Centro-Oeste,5,Mato Grosso,BR51,Juína,BR5105150,Yes
46a9584f-ad72-395f-957e-f8aabff008e8,Brazil,government,51002337,ERM MARECHAL HERMES,-11.5435,-59.4962,0.67,23,Yes,Municipal,Rural,Yes,5.0,Centro-Oeste,5,Mato Grosso,BR51,Juína,BR5105150,Yes
e521e829-9420-38df-9226-8916364acc0f,Brazil,government,51002345,EM VINICIUS DE MORAIS,-11.3388,-58.3393,1.0,68,Yes,Municipal,Rural,No,0.0,Centro-Oeste,5,Mato Grosso,BR51,Juína,BR5105150,No
5db42a55-b2b4-3693-bdc8-8d63225d6306,Brazil,government,51002400,ESCOLA RURAL MUNICIPAL OSVALDO CRUZ,-11.1125,-59.1732,1.0,431,No,Municipal,Rural,Yes,2.0,Centro-Oeste,5,Mato Grosso,BR51,Juína,BR5105150,Yes
d5a8d92c-0ec7-32ca-8fe4-2b9a2cdabde9,Brazil,government,51002418,EM PE JOSE DE ANCHIETA,-11.4194,-58.7529,1.0,226,Yes,Municipal,Urban,Yes,5.0,Centro-Oeste,5,Mato Grosso,BR51,Juína,BR5105150,Yes
f97c40ef-88dd-3730-9cdd-de279b1908e6,Brazil,government,51002450,ERM PONCE DE ARRUDA,-11.3078,-58.7044,1.0,75,Yes,Municipal,Rural,Yes,5.0,Centro-Oeste,5,Mato Grosso,BR51,Juína,BR5105150,Yes
d3cb41ae-b994-3531-95f4-0eb9d2c48384,Brazil,government,51002736,EE DR ARTUR ANTUNES MACIEL,-11.4216,-58.7603,1.0,904,Yes,Estadual,Urban,Yes,5.0,Centro-Oeste,5,Mato Grosso,BR51,Juína,BR5105150,Yes
c130335e-38a9-3971-92e8-a61808d35b61,Brazil,government,51002744,EE 9 DE MAIO,-11.4354,-58.7563,1.0,235,Yes,Estadual,Urban,Yes,5.0,Centro-Oeste,5,Mato Grosso,BR51,Juína,BR5105150,Yes
8812e8aa-0a65-39ec-8557-a9a641e9f6fb,Brazil,government,51002752,EE 21 DE ABRIL,-11.4449,-58.7665,1.0,614,Yes,Estadual,Urban,Yes,5.0,Centro-Oeste,5,Mato Grosso,BR51,Juína,BR5105150,Yes
2029076d-5119-35e4-abfd-07322eb39c07,Brazil,government,51002760,EE ANA NERI,-11.5435,-59.4962,0.67,401,No,Estadual,Urban,Yes,2.0,Centro-Oeste,5,Mato Grosso,BR51,Juína,BR5105150,Yes
3ede09b0-01f6-3432-8344-a930df0c5e8a,Brazil,government,51002779,EE MARECHAL RONDON,-11.5435,-59.4962,0.67,201,No,Estadual,Urban,Yes,5.0,Centro-Oeste,5,Mato Grosso,BR51,Juína,BR5105150,Yes
933b4cef-8ebe-3595-94d4-45be928b105e,Brazil,government,51002787,EE PE EZEQUIEL RAMIN,-11.4144,-58.7469,1.0,1091,Yes,Estadual,Urban,Yes,5.0,Centro-Oeste,5,Mato Grosso,BR51,Juína,BR5105150,Yes
165dc1e5-0407-3591-97c6-2b176a3aa12e,Brazil,government,51002795,EE DR GUILHERME FREITAS DE ABREU LIMA,-11.5435,-59.4962,0.67,716,Yes,Estadual,Urban,Yes,5.0,Centro-Oeste,5,Mato Grosso,BR51,Juína,BR5105150,Yes
b54959aa-8672-399a-8dd1-16ffa2f4990d,Brazil,government,51002809,EE 07 DE SETEMBRO,-11.4112,-58.7579,1.0,737,No,Estadual,Urban,Yes,5.0,Centro-Oeste,5,Mato Grosso,BR51,Juína,BR5105150,Yes
f8b17b5a-bb4a-32c0-991c-a56dd082430c,Brazil,government,51002817,EE ANTONIO FRANCISCO LISBOA,-11.3831,-58.7803,1.0,255,Yes,Estadual,Rural,Yes,5.0,Centro-Oeste,5,Mato Grosso,BR51,Juína,BR5105150,Yes
17178a13-2df2-39ff-965d-1250eee890e7,Brazil,government,51002825,ERM ALVARES DE AZEVEDO,-11.453,-59.1421,0.94,142,Yes,Municipal,Rural,Yes,2.0,Centro-Oeste,5,Mato Grosso,BR51,Juína,BR5105150,Yes
91dfa22d-cee4-3886-8cd5-051b10aea7f4,Brazil,government,51002868,EE DOM AQUINO CORREA,-10.3311,-58.4957,1.0,1002,No,Estadual,Urban,Yes,5.0,Centro-Oeste,5,Mato Grosso,BR51,Juruena,BR5105176,Yes
d2d4d707-57f1-34ab-a686-28d0aced474b,Brazil,government,51002884,ESCOLA MUNICIPAL DO CAMPO DORVAL BONETTI,-10.3631,-58.5916,0.67,58,No,Municipal,Rural,Yes,5.0,Centro-Oeste,5,Mato Grosso,BR51,Juruena,BR5105176,Yes
ee3e0bfa-cc5a-3d09-ae17-dc772870d17d,Brazil,government,51002906,ESCOLA MUNICIPAL DO CAMPO MARIO QUINTANA,-10.3631,-58.5916,1.0,0,,Municipal,Rural,,,Centro-Oeste,5,Mato Grosso,BR51,Juruena,BR5105176,No
b03ba7eb-bccd-37b3-a022-761049c88548,Brazil,government,51002930,EMC NOSSA SENHORA DE FATIMA,-10.3631,-58.5916,0.67,54,Yes,Municipal,Rural,Yes,5.0,Centro-Oeste,5,Mato Grosso,BR51,Juruena,BR5105176,Yes
6421cdd1-a052-3ad0-b2a6-199f4461163d,Brazil,government,51002957,ESCOLA MUNICIPAL DO CAMPO PAULO FREIRE,-10.3631,-58.5916,1.0,0,,Municipal,Rural,,,Centro-Oeste,5,Mato Grosso,BR51,Juruena,BR5105176,No
b7b67eb5-4524-3805-8cde-f1f4097c9020,Brazil,government,51002965,ESCOLA MUNICIPAL DO CAMPO PEDRO ALVARES CABRAL,-10.3631,-58.5916,1.0,0,,Municipal,Rural,,,Centro-Oeste,5,Mato Grosso,BR51,Juruena,BR5105176,No
d455f07b-5658-3581-8517-7d4f35cfef3f,Brazil,government,51002990,ESCOLA MUNICIPAL DO CAMPO SAO JOAO BATISTA,-10.3631,-58.5916,1.0,0,,Municipal,Rural,,,Centro-Oeste,5,Mato Grosso,BR51,Juruena,BR5105176,No
45e42034-987a-333f-9306-9b07cafb8d5e,Brazil,government,51003007,ESCOLA MUNICIPAL DO CAMPO SAO MARCELO,-10.3631,-58.5916,1.0,0,,Municipal,Rural,,,Centro-Oeste,5,Mato Grosso,BR51,Juruena,BR5105176,No
902de7cf-0271-37cf-af8a-f4f259b94fd7,Brazil,government,51003040,EM 07 MAIO,-10.3297,-58.4988,1.0,185,No,Municipal,Urban,Yes,5.0,Centro-Oeste,5,Mato Grosso,BR51,Juruena,BR5105176,Yes
53c1e459-0915-3633-b848-c060242dbb8e,Brazil,government,51003074,CENTRO DE EDUCACAO INFANTIL ARCO-IRIS,-10.3271,-58.496,0.94,245,No,Municipal,Urban,Yes,5.0,Centro-Oeste,5,Mato Grosso,BR51,Juruena,BR5105176,Yes
87a20fe4-3987-3188-8ca9-68a39ced3188,Brazil,government,51003228,EE MANOEL BANDEIRA,-9.8608,-56.0779,1.0,405,Yes,Estadual,Urban,Yes,2.0,Centro-Oeste,5,Mato Grosso,BR51,Alta Floresta,BR5100250,Yes
969f336b-73a6-3c83-a8c6-551e13cc2f8f,Brazil,government,51003457,EE JAYME VERISSIMO DE CAMPOS JUNIOR,-9.8472,-56.0738,1.0,226,Yes,Estadual,Urban,Yes,5.0,Centro-Oeste,5,Mato Grosso,BR51,Alta Floresta,BR5100250,Yes
0e2a0760-68da-3076-9c79-5a55387c7df3,Brazil,government,51003554,EE MUNDO NOVO,-10.0555,-56.3667,0.67,166,Yes,Estadual,Rural,Yes,2.0,Centro-Oeste,5,Mato Grosso,BR51,Alta Floresta,BR5100250,Yes
3a4c7ac7-0efa-357f-b21a-19b3ce1f5338,Brazil,government,51003562,EE RUI BARBOSA,-9.8538,-56.0718,1.0,1362,No,Estadual,Urban,Yes,5.0,Centro-Oeste,5,Mato Grosso,BR51,Alta Floresta,BR5100250,Yes
2d458911-d736-354e-9445-288c769fc47f,Brazil,government,51003570,EE VITORIA FURLANI DA RIVA,-10.0555,-56.3667,0.67,697,Yes,Estadual,Urban,Yes,5.0,Centro-Oeste,5,Mato Grosso,BR51,Alta Floresta,BR5100250,Yes
2fe72584-6020-357b-bac9-dfb81556a0d4,Brazil,government,51003597,EMALUIZIO DE AZEVEDO,-10.0555,-56.3667,0.67,49,Yes,Municipal,Rural,Yes,5.0,Centro-Oeste,5,Mato Grosso,BR51,Alta Floresta,BR5100250,Yes
e7930214-a079-3208-ba47-f2b5e10de4c2,Brazil,government,51003694,EE OURO VERDE,-10.0555,-56.3667,0.67,152,Yes,Estadual,Rural,Yes,2.0,Centro-Oeste,5,Mato Grosso,BR51,Alta Floresta,BR5100250,Yes
943e1188-762d-369a-adc2-3a8aceec6f20,Brazil,government,51003708,EM NILO PROCOPIO PECANHA,-10.0555,-56.3667,0.67,269,Yes,Municipal,Urban,Yes,5.0,Centro-Oeste,5,Mato Grosso,BR51,Alta Floresta,BR5100250,Yes
bb7f7281-7a8c-3476-9377-defb26108360,Brazil,government,51003724,EE LUDOVICO DA RIVA NETO,-9.8347,-56.0817,1.0,462,Yes,Estadual,Urban,Yes,5.0,Centro-Oeste,5,Mato Grosso,BR51,Alta Floresta,BR5100250,Yes
34665b0b-8924-3fab-8394-2886e26d93c1,Brazil,government,51003813,EE 19 DE MAIO,-9.8771,-56.0665,1.0,715,No,Estadual,Urban,Yes,5.0,Centro-Oeste,5,Mato Grosso,BR51,Alta Floresta,BR5100250,Yes
648ee690-35bb-3f6a-8861-5e795a343675,Brazil,government,51003830,EE PROF MARINES FATIMA DE SA TEIXEIRA,-10.0555,-56.3667,0.67,662,Yes,Estadual,Urban,Yes,5.0,Centro-Oeste,5,Mato Grosso,BR51,Alta Floresta,BR5100250,Yes
5388ca7e-4472-35ee-bfea-b06bc1010573,Brazil,government,51003856,EM GENY SILVERIO DELARINCY,-10.0555,-56.3667,0.67,346,Yes,Municipal,Urban,Yes,5.0,Centro-Oeste,5,Mato Grosso,BR51,Alta Floresta,BR5100250,Yes
0fda652b-3bdb-3b73-a698-c2dc4ac8dbc4,Brazil,government,51003929,EM CASTELO BRANCO,-10.0555,-56.3667,0.67,71,Yes,Municipal,Rural,Yes,5.0,Centro-Oeste,5,Mato Grosso,BR51,Alta Floresta,BR5100250,Yes
fd6b7393-1057-3328-988a-2c180dbc08c8,Brazil,government,51004216,EM VICENTE FRANCISCO DA SILVA,-9.8592,-56.0911,1.0,296,Yes,Municipal,Urban,Yes,5.0,Centro-Oeste,5,Mato Grosso,BR51,Alta Floresta,BR5100250,Yes
a10a3de9-0293-3e9e-9f58-0c4cfc8f79f0,Brazil,government,51004348,EE FREI CANECA,-10.1052,-55.8306,0.67,389,Yes,Estadual,Rural,Yes,2.0,Centro-Oeste,5,Mato Grosso,BR51,Carlinda,BR5102793,Yes
788a90d0-f7b1-3499-bdd2-f751e3d360d9,Brazil,government,51004356,EE TANCREDO DE ALMEIDA NEVES,-9.9671,-55.8253,1.0,816,Yes,Estadual,Urban,Yes,5.0,Centro-Oeste,5,Mato Grosso,BR51,Carlinda,BR5102793,Yes
5fb17aec-81c4-3ca4-9fcc-be21feeff8cc,Brazil,government,51004364,EMEF PE GERALDO DA SILVA ARAUJO,-10.0836,-55.9069,1.0,60,No,Municipal,Rural,Yes,5.0,Centro-Oeste,5,Mato Grosso,BR51,Carlinda,BR5102793,Yes
328e36e3-b283-3c94-a131-aee9d81f06da,Brazil,government,51004399,EM MONTEIRO LOBATO,-10.1052,-55.8306,0.67,66,No,Municipal,Rural,Yes,2.0,Centro-Oeste,5,Mato Grosso,BR51,Carlinda,BR5102793,Yes
fa2dbef7-7027-36a4-a411-d214edbd4405,Brazil,government,51004437,EMEF JOAQUIM NABUCO,-9.8853,-55.8153,1.0,103,No,Municipal,Rural,Yes,2.0,Centro-Oeste,5,Mato Grosso,BR51,Carlinda,BR5102793,Yes
3ca25dc2-cdab-3ad9-9c0e-da5deedd0e57,Brazil,government,51004445,EMEF MANOEL BANDEIRA,-10.1052,-55.8306,0.67,459,Yes,Municipal,Urban,Yes,5.0,Centro-Oeste,5,Mato Grosso,BR51,Carlinda,BR5102793,Yes
8951aa66-36b2-3d00-8ccc-0f83bc404b5a,Brazil,government,51004470,E M CECILIA MEIRELES,-10.1052,-55.8306,0.67,158,No,Municipal,Rural,Yes,5.0,Centro-Oeste,5,Mato Grosso,BR51,Carlinda,BR5102793,Yes
e747ba26-6481-3193-9b24-f7b5b04e2bc8,Brazil,government,51004526,EMPAULO CESAR LEINIG,-10.0555,-56.3667,0.67,145,Yes,Municipal,Rural,Yes,5.0,Centro-Oeste,5,Mato Grosso,BR51,Alta Floresta,BR5100250,Yes
2c8930c0-df33-38ba-9556-21170442d348,Brazil,government,51004631,CENTRO DE PROMOCAO EDUCACIONAL,-8.7537,-57.8272,0.67,372,Yes,Municipal,Urban,Yes,5.0,Centro-Oeste,5,Mato Grosso,BR51,Apiacás,BR5100805,Yes
a65e71df-ed10-361a-9ede-a1ae9fc40d6d,Brazil,government,51004828,EM PAULO FREIRE,-8.7537,-57.8272,0.67,268,Yes,Municipal,Urban,Yes,5.0,Centro-Oeste,5,Mato Grosso,BR51,Apiacás,BR5100805,Yes
9e4ffea2-aa76-3c09-be10-1700a6e230a0,Brazil,government,51004836,EE VINICIUS DE MORAES,-9.5721,-57.3965,1.0,447,No,Estadual,Urban,Yes,5.0,Centro-Oeste,5,Mato Grosso,BR51,Apiacás,BR5100805,Yes
7e512c12-80a0-3b56-9c4f-eecfe6d070bf,Brazil,government,51004860,EMEB RURAL JOAO PAULO II,-8.7537,-57.8272,0.67,6,No,Municipal,Rural,Yes,5.0,Centro-Oeste,5,Mato Grosso,BR51,Apiacás,BR5100805,Yes
56f9973b-a8ed-3535-9ab7-a857d245415d,Brazil,government,51004909,EM JOANA D ARC,-9.7667,-58.0779,0.67,36,No,Municipal,Rural,No,0.0,Centro-Oeste,5,Mato Grosso,BR51,Nova Bandeirantes,BR5106158,No
6d054c33-b232-3303-9f47-cfce16742306,Brazil,government,51004917,E M JOSE LUIZ CANDIDO,-9.7667,-58.0779,0.67,381,Yes,Municipal,Rural,Yes,5.0,Centro-Oeste,5,Mato Grosso,BR51,Nova Bandeirantes,BR5106158,Yes
c613df26-7eaf-371b-ba70-b7790dfc0085,Brazil,government,51004950,ESCOLA MUNICIPAL PARAISO DO NORTE,-9.7667,-58.0779,0.67,196,Yes,Municipal,Rural,Yes,5.0,Centro-Oeste,5,Mato Grosso,BR51,Nova Bandeirantes,BR5106158,Yes
38c6670f-f01c-3813-b5b1-86d0fad7b7a0,Brazil,government,51004968,EE PROF VALDOMIRO TEODORO CANDIDO,-9.7667,-58.0779,0.67,984,Yes,Estadual,Urban,Yes,5.0,Centro-Oeste,5,Mato Grosso,BR51,Nova Bandeirantes,BR5106158,Yes
e3e3fbd2-8884-3312-bbda-2aa5b02a3d11,Brazil,government,51005069,EM ANA NERY,-9.7667,-58.0779,0.67,15,No,Municipal,Rural,Yes,5.0,Centro-Oeste,5,Mato Grosso,BR51,Nova Bandeirantes,BR5106158,Yes
8e1df1dd-4412-38bc-8f3a-5f865710633c,Brazil,government,51005123,E M PRINCESA ISABEL,-9.7667,-58.0779,0.67,127,No,Municipal,Rural,Yes,5.0,Centro-Oeste,5,Mato Grosso,BR51,Nova Bandeirantes,BR5106158,Yes
cc20ebed-c022-3e9e-83e1-bbbbcb8c0c65,Brazil,government,51005182,E M CRISTO REDENTOR,-9.9038,-56.7301,1.0,202,No,Municipal,Rural,Yes,5.0,Centro-Oeste,5,Mato Grosso,BR51,Paranaíta,BR5106299,Yes
5107dc2e-b1f9-31e5-94fa-bcc61a22f625,Brazil,government,51005212,E M GETULIO VARGAS,-9.5933,-56.6819,0.67,65,No,Municipal,Rural,No,0.0,Centro-Oeste,5,Mato Grosso,BR51,Paranaíta,BR5106299,No
96b4e3a2-297b-3e75-b5e2-1e8e1118247a,Brazil,government,51005239,E M MARIA QUITERIA,-9.5933,-56.6819,0.67,105,No,Municipal,Rural,Yes,5.0,Centro-Oeste,5,Mato Grosso,BR51,Paranaíta,BR5106299,Yes
d00e1b69-63fa-3c2c-af8d-5e1aeaf0bedf,Brazil,government,51005360,E M TANCREDO DE ALMEIDA NEVES,-9.7181,-56.6758,1.0,152,No,Municipal,Rural,Yes,5.0,Centro-Oeste,5,Mato Grosso,BR51,Paranaíta,BR5106299,Yes
7d4ccf3e-82cf-35db-b9ba-4ad03cabe6b8,Brazil,government,51005409,EE JOAO PAULO I,-9.6658,-56.4767,1.0,336,No,Estadual,Urban,Yes,5.0,Centro-Oeste,5,Mato Grosso,BR51,Paranaíta,BR5106299,Yes
4f3902ac-8825-3187-a402-6414d382f3ca,Brazil,government,51005417,E M JUSCELINO KUBITSCHEK DE OLIVEIRA,-9.6832,-56.4689,1.0,1084,Yes,Municipal,Urban,Yes,5.0,Centro-Oeste,5,Mato Grosso,BR51,Paranaíta,BR5106299,Yes
cb851e9b-dc56-384e-a502-96a09e0710b1,Brazil,government,51005433,EE DR MARIO CORREA DA COSTA,-9.6646,-56.4725,1.0,416,Yes,Estadual,Urban,Yes,5.0,Centro-Oeste,5,Mato Grosso,BR51,Paranaíta,BR5106299,Yes
10c1914c-bfdc-342c-8f4e-c79c84b9994e,Brazil,government,51005476,E M SAO PEDRO,-9.5933,-56.6819,0.67,64,No,Municipal,Rural,Yes,5.0,Centro-Oeste,5,Mato Grosso,BR51,Paranaíta,BR5106299,No
f8becdf2-9274-33fb-afc1-a9f3aadb9bcb,Brazil,government,51005492,EMEF AFONSO PENA,-9.9839,-57.5137,1.0,0,,Municipal,Rural,,,Centro-Oeste,5,Mato Grosso,BR51,Nova Monte Verde,BR5108956,No
cf268fdf-8306-37b4-be26-f354b1513930,Brazil,government,51005514,EMEF DOM BOSCO,-9.9656,-57.2502,1.0,0,,Municipal,Rural,,,Centro-Oeste,5,Mato Grosso,BR51,Nova Monte Verde,BR5108956,No
990392c8-a0ca-3137-8066-bfb97b8a3dd4,Brazil,government,51005522,EMEF ERICO VERISSIMO,-9.9656,-57.2502,1.0,0,,Municipal,Rural,,,Centro-Oeste,5,Mato Grosso,BR51,Nova Monte Verde,BR5108956,No
9a4e4a1d-10a9-3f6d-915c-9936f3472650,Brazil,government,51005573,EMEF MONTEIRO LOBATO,-9.9656,-57.2502,1.0,0,,Municipal,Rural,,,Centro-Oeste,5,Mato Grosso,BR51,Nova Monte Verde,BR5108956,No
861b671c-2832-323c-a582-8832c289ae90,Brazil,government,51005638,EMEF BENEDITO FERRAZ DE ALMEIDA PRADO,-9.9656,-57.2502,1.0,0,,Municipal,Rural,,,Centro-Oeste,5,Mato Grosso,BR51,Nova Monte Verde,BR5108956,No
50747a94-e120-3756-ad83-bb77b2d880b3,Brazil,government,51005670,EE MACHADO DE ASSIS,-9.9656,-57.2502,0.67,131,Yes,Estadual,Rural,Yes,2.0,Centro-Oeste,5,Mato Grosso,BR51,Nova Monte Verde,BR5108956,Yes
5e340e5c-a5b2-3489-b226-f20bc387d9bc,Brazil,government,51005689,EE MONTE VERDE,-9.9795,-57.4693,1.0,345,No,Estadual,Urban,Yes,5.0,Centro-Oeste,5,Mato Grosso,BR51,Nova Monte Verde,BR5108956,Yes
afa30b55-59bb-38bb-b3ee-cbb87ca5127b,Brazil,government,51005697,EMEF ALTO PARAISO,-9.9656,-57.2502,0.67,26,Yes,Municipal,Rural,Yes,5.0,Centro-Oeste,5,Mato Grosso,BR51,Nova Monte Verde,BR5108956,Yes
abf4cbb1-e9c5-38e0-accf-2ff79d983780,Brazil,government,51005727,EMEF DOM JOAO VI,-9.9656,-57.2502,0.67,65,Yes,Municipal,Urban,Yes,5.0,Centro-Oeste,5,Mato Grosso,BR51,Nova Monte Verde,BR5108956,Yes
5133208a-86c7-3966-9fbb-a3a7d1c86b87,Brazil,government,51005743,EMEF MANOEL C DE ABREU,-9.9656,-57.2502,1.0,0,,Municipal,Rural,,,Centro-Oeste,5,Mato Grosso,BR51,Nova Monte Verde,BR5108956,No
10a18be4-0105-37d4-bcb9-c94ef80c90d8,Brazil,government,51005816,EE PROFESSORA ALZIRA MARIA DA SILVA,-10.8181,-55.4555,1.0,330,Yes,Estadual,Urban,Yes,5.0,Centro-Oeste,5,Mato Grosso,BR51,Colíder,BR5103205,Yes
8e41bc3c-7bba-3602-abba-cdb1dd1f7a4e,Brazil,government,51005824,CEJA CLEONICE MIRANDA DA SILVA,-10.8058,-55.4561,1.0,889,Yes,Estadual,Urban,Yes,5.0,Centro-Oeste,5,Mato Grosso,BR51,Colíder,BR5103205,Yes
ca429494-e8f8-3ba7-9b7a-e748263f6727,Brazil,government,51005840,ESCOLA MUNICIPAL BOM JESUS,-10.6305,-55.4686,0.67,215,Yes,Municipal,Urban,Yes,5.0,Centro-Oeste,5,Mato Grosso,BR51,Colíder,BR5103205,Yes
2d1a065c-a8b4-3199-ac9b-cbd31b6651a8,Brazil,government,51006057,EM CORACAO EUCARISTICO,-10.6305,-55.4686,0.67,12,No,Municipal,Rural,No,0.0,Centro-Oeste,5,Mato Grosso,BR51,Colíder,BR5103205,No
c6447141-3ed5-3d88-8e5c-de74aa8d6c65,Brazil,government,51006090,EM FAZENDA VERANEIO,-10.6305,-55.4686,1.0,0,,Municipal,Rural,,,Centro-Oeste,5,Mato Grosso,BR51,Colíder,BR5103205,No
042ad92e-1306-35a5-9620-7a373fc2e7b6,Brazil,government,51006243,EM NOSSA SENHORA DO PERPETUO SOCORRO,-10.6305,-55.4686,0.67,16,Yes,Municipal,Rural,No,0.0,Centro-Oeste,5,Mato Grosso,BR51,Colíder,BR5103205,No
6badfb03-46f2-3c86-9b29-080e0788fe06,Brazil,government,51006316,E M PROF IVANIRA MOREIRA JUNGLOS,-10.6305,-55.4686,0.67,585,Yes,Municipal,Urban,Yes,5.0,Centro-Oeste,5,Mato Grosso,BR51,Colíder,BR5103205,Yes
502c6d94-ee49-301a-92cb-c75d152011ef,Brazil,government,51006405,ESCOLA MUNICIPAL SANTA MARIA DO OURO VERDE,-10.5791,-55.4014,1.0,105,Yes,Municipal,Rural,Yes,5.0,Centro-Oeste,5,Mato Grosso,BR51,Colíder,BR5103205,Yes
7e0e1dcf-3aae-3660-8f74-76c4f240aa5a,Brazil,government,51006561,EM SAO LAZARO,-10.6305,-55.4686,1.0,0,,Municipal,Rural,,,Centro-Oeste,5,Mato Grosso,BR51,Colíder,BR5103205,No
49d72861-c519-312d-917b-49ee802413a3,Brazil,government,51006618,EM SAO MATEUS,-10.6305,-55.4686,0.67,149,Yes,Municipal,Rural,Yes,5.0,Centro-Oeste,5,Mato Grosso,BR51,Colíder,BR5103205,Yes
fcab62b4-61b4-38c1-9227-3cb9c1e362f6,Brazil,government,51006677,EM SOL NASCENTE,-10.6305,-55.4686,0.67,11,No,Municipal,Rural,Yes,5.0,Centro-Oeste,5,Mato Grosso,BR51,Colíder,BR5103205,Yes
0aac97e9-5097-38eb-b5ac-dee5e59aee5a,Brazil,government,51006847,EE DESMILTON ARMANDO POMPEU DE BARROS,-10.809,-55.4549,0.94,845,Yes,Estadual,Urban,Yes,5.0,Centro-Oeste,5,Mato Grosso,BR51,Colíder,BR5103205,Yes
23f99f47-7e68-3657-b959-e8d2ee562210,Brazil,government,51006863,EE CEL ANTONIO PAES DE BARROS,-10.8019,-55.4631,1.0,125,Yes,Estadual,Urban,Yes,5.0,Centro-Oeste,5,Mato Grosso,BR51,Colíder,BR5103205,Yes
46b116ef-92d3-340f-81b3-917ddecb0d31,Brazil,government,51006871,EE CAFENORTE,-10.6305,-55.4686,0.67,116,Yes,Estadual,Rural,Yes,5.0,Centro-Oeste,5,Mato Grosso,BR51,Colíder,BR5103205,Yes
9eb493ef-e3aa-3cd7-8d3f-1ff23f750b36,Brazil,government,51006880,EE NOVA GALILEIA,-10.6305,-55.4686,0.67,121,No,Estadual,Rural,Yes,5.0,Centro-Oeste,5,Mato Grosso,BR51,Colíder,BR5103205,Yes
3943c69d-87fb-3708-bf38-771dd40351e2,Brazil,government,51006901,EE PALMITAL,-10.6305,-55.4686,0.67,138,No,Estadual,Rural,Yes,2.0,Centro-Oeste,5,Mato Grosso,BR51,Colíder,BR5103205,Yes
c37a83b6-89e6-3a14-9c9d-45f2ab012ee0,Brazil,government,51006987,E MUNICIPAL DE PRIMEIRO GRAU AMIZADE,-9.7511,-55.4035,1.0,0,,Municipal,Rural,,,Centro-Oeste,5,Mato Grosso,BR51,Novo Mundo,BR5106265,No
faa47fdf-e4ec-3e5b-a1c3-ddf2d1701246,Brazil,government,51007037,EMC BASE AEREA,-9.7761,-54.6178,0.67,78,No,Municipal,Rural,Yes,5.0,Centro-Oeste,5,Mato Grosso,BR51,Guarantã do Norte,BR5104104,Yes
abe06d90-c792-321e-aaac-5316f8c13ae0,Brazil,government,51007045,EMPG BELA VISTA,-9.7511,-55.4035,1.0,0,,Municipal,Rural,,,Centro-Oeste,5,Mato Grosso,BR51,Novo Mundo,BR5106265,No
bbe60832-6308-31d6-96ab-6441c5148f17,Brazil,government,51007177,EMPG FLOR DA MATA,-9.7511,-55.4035,1.0,0,,Municipal,Rural,,,Centro-Oeste,5,Mato Grosso,BR51,Novo Mundo,BR5106265,No
995c7914-ebf1-3311-b825-d9ec908ab764,Brazil,government,51007282,EMC NOVO HORIZONTE,-9.7761,-54.6178,0.67,129,Yes,Municipal,Rural,Yes,5.0,Centro-Oeste,5,Mato Grosso,BR51,Guarantã do Norte,BR5104104,Yes
2eabb0d5-6d54-37ec-ba76-a2e119e22637,Brazil,government,51007380,EMC SANTA ANA,-9.7761,-54.6178,0.67,68,Yes,Municipal,Rural,Yes,5.0,Centro-Oeste,5,Mato Grosso,BR51,Guarantã do Norte,BR5104104,Yes
d0ffc122-58ad-3c50-9d9d-37224c635e74,Brazil,government,51007452,EMPG SAO JOSE-NHANDU,-9.7511,-55.4035,1.0,0,,Municipal,Rural,,,Centro-Oeste,5,Mato Grosso,BR51,Novo Mundo,BR5106265,No
1b85615a-a122-3493-94ca-d1bc4d1bd711,Brazil,government,51007525,EMC SOL NASCENTE,-9.7761,-54.6178,0.67,154,Yes,Municipal,Rural,Yes,5.0,Centro-Oeste,5,Mato Grosso,BR51,Guarantã do Norte,BR5104104,Yes
a295f0b6-b9e8-38b6-a7c2-55801de00058,Brazil,government,51007657,EE EDUCACAO BASICA ANDRE ANTONIO MAGGI,-9.7511,-55.4035,0.67,584,No,Estadual,Urban,Yes,5.0,Centro-Oeste,5,Mato Grosso,BR51,Novo Mundo,BR5106265,Yes
48ec3b4c-5753-3f7c-b8da-b6eb161f0fe8,Brazil,government,51007665,ESCOLA MUNICIPAL 13 DE MAIO,-9.9507,-54.9251,1.0,541,Yes,Municipal,Urban,Yes,5.0,Centro-Oeste,5,Mato Grosso,BR51,Guarantã do Norte,BR5104104,Yes
62ed3fba-8517-3737-ae7d-54f2b24c997b,Brazil,government,51007673,EMC BOA ESPERANCA,-9.7761,-54.6178,0.67,45,Yes,Municipal,Rural,Yes,2.0,Centro-Oeste,5,Mato Grosso,BR51,Guarantã do Norte,BR5104104,Yes
56174911-77e9-36f5-b6ea-e6e2f1057373,Brazil,government,51007681,EMEB NHANDU,-9.7511,-55.4035,0.67,58,No,Municipal,Rural,Yes,2.0,Centro-Oeste,5,Mato Grosso,BR51,Novo Mundo,BR5106265,Yes
b8f3276f-10c5-3669-b939-5e26c254543c,Brazil,government,51007746,ESCOLA MUNICIPAL BEIJA - FLOR,-9.7761,-54.6178,0.67,519,Yes,Municipal,Urban,Yes,5.0,Centro-Oeste,5,Mato Grosso,BR51,Guarantã do Norte,BR5104104,Yes
47dd30c4-deed-30a8-86fd-53cff5357f4d,Brazil,government,51007770,ESCOLA MUNICIPAL ESTRELINHA DO NORTE,-9.7761,-54.6178,0.67,676,Yes,Municipal,Urban,Yes,5.0,Centro-Oeste,5,Mato Grosso,BR51,Guarantã do Norte,BR5104104,Yes
c5b21e8c-f244-3d2b-8c88-1babeb96f553,Brazil,government,51007789,EMPG SALVADOR SIQUEIRA,-9.7511,-55.4035,1.0,0,,Municipal,Rural,,,Centro-Oeste,5,Mato Grosso,BR51,Novo Mundo,BR5106265,No
f66c1cbf-a8b8-34b8-9c31-986d87f6d168,Brazil,government,51007967,EE ANTONIO OMETTO,-10.0154,-54.355,0.61,197,Yes,Estadual,Urban,Yes,5.0,Centro-Oeste,5,Mato Grosso,BR51,Matupá,BR5105606,Yes
313ad300-93ff-324d-aee2-15d3cfb27645,Brazil,government,51007975,EE BAIRRO UNIAO,-10.0154,-54.355,0.61,509,Yes,Estadual,Urban,Yes,5.0,Centro-Oeste,5,Mato Grosso,BR51,Matupá,BR5105606,Yes
6d7a0c66-8bc9-3fbe-960f-4f98a8d75974,Brazil,government,51007983,EM ALTO ALEGRE,-10.0154,-54.355,0.94,0,,Municipal,Rural,,,Centro-Oeste,5,Mato Grosso,BR51,Matupá,BR5105606,No
13829a59-52e5-3fdb-b255-47d16440bab1,Brazil,government,51007991,EM NORBERTO JOSE GEHLEN,-10.0865,-55.1294,1.0,98,Yes,Municipal,Rural,Yes,2.0,Centro-Oeste,5,Mato Grosso,BR51,Matupá,BR5105606,Yes
fbfeea63-5b7d-35b3-af01-2c4c5e931a0d,Brazil,government,51008041,EE CECILIA MEIRELES,-10.1718,-54.9301,1.0,452,Yes,Estadual,Urban,Yes,5.0,Centro-Oeste,5,Mato Grosso,BR51,Matupá,BR5105606,Yes
b6a7266d-b48f-3377-8a10-94e19b19b81f,Brazil,government,51008084,EESPSG NOVA UNIAO,-10.7537,-56.0307,0.67,223,Yes,Estadual,Rural,Yes,2.0,Centro-Oeste,5,Mato Grosso,BR51,Nova Canaã do Norte,BR5106216,Yes
482cefce-2be4-3152-b016-7ccbd5ab6fec,Brazil,government,51008122,ESCOLA MUNICIPAL RURAL OURO BRANCO,-10.556,-55.9453,0.94,226,Yes,Municipal,Rural,Yes,5.0,Centro-Oeste,5,Mato Grosso,BR51,Nova Canaã do Norte,BR5106216,Yes
143eea20-de90-30d1-936d-a3886c09a3b7,Brazil,government,51008130,ESCOLA MUNICIPAL EDSON FERREIRA DE CARVALHO,-10.6374,-55.7122,1.0,724,No,Municipal,Urban,Yes,5.0,Centro-Oeste,5,Mato Grosso,BR51,Nova Canaã do Norte,BR5106216,Yes
dea09606-90a5-31b4-aef8-394ff04f7df7,Brazil,government,51008165,ESCOLA MUNICIPAL SANTA IZABEL,-10.7537,-56.0307,0.67,21,No,Municipal,Rural,Yes,5.0,Centro-Oeste,5,Mato Grosso,BR51,Nova Canaã do Norte,BR5106216,Yes
046520a5-81e2-334d-be8b-cc079bc0b42c,Brazil,government,51008602,EE NOVA CANAA,-10.639,-55.7095,0.94,928,Yes,Estadual,Urban,Yes,5.0,Centro-Oeste,5,Mato Grosso,BR51,Nova Canaã do Norte,BR5106216,Yes
e12708db-2894-3116-87d0-d6e7eecafada,Brazil,government,51008629,EMR SAO MANUEL,-10.4584,-56.098,0.94,221,No,Municipal,Rural,Yes,5.0,Centro-Oeste,5,Mato Grosso,BR51,Nova Canaã do Norte,BR5106216,Yes
cb52f64c-ba60-345f-bc00-cec5432a731b,Brazil,government,51008653,EM JARDIM DAS FLORES,-10.1473,-53.5864,0.67,369,No,Municipal,Urban,Yes,5.0,Centro-Oeste,5,Mato Grosso,BR51,Peixoto de Azevedo,BR5106422,Yes
28f8bfab-7928-3c62-b657-0e96118fc74e,Brazil,government,51008696,EE VINICIUS DE MORAES,-10.2501,-54.9888,1.0,144,Yes,Estadual,Urban,Yes,2.0,Centro-Oeste,5,Mato Grosso,BR51,Peixoto de Azevedo,BR5106422,Yes
7c4599bf-2825-39ba-86f8-684321539a3a,Brazil,government,51008793,ESCOLA MUNICIPAL SAO PEDRO,-10.1473,-53.5864,0.67,452,Yes,Municipal,Urban,Yes,5.0,Centro-Oeste,5,Mato Grosso,BR51,Peixoto de Azevedo,BR5106422,Yes
cd30144a-0475-3f17-b3ae-1acb80a6db3a,Brazil,government,51008815,EE 19 DE JULHO,-10.2406,-54.9922,1.0,976,Yes,Estadual,Urban,Yes,5.0,Centro-Oeste,5,Mato Grosso,BR51,Peixoto de Azevedo,BR5106422,Yes
4a348954-07b0-3ef9-b774-634020c533b1,Brazil,government,51008831,EE GARCIA GARRIDO FERMINO,-10.2413,-55.0019,1.0,699,No,Estadual,Urban,Yes,5.0,Centro-Oeste,5,Mato Grosso,BR51,Peixoto de Azevedo,BR5106422,Yes
e781bb9b-480a-36c8-85ea-e514a9a4a1cd,Brazil,government,51008912,EE LUCAS AUXILIO TONIAZO,-10.5834,-54.9711,0.67,231,No,Estadual,Rural,No,0.0,Centro-Oeste,5,Mato Grosso,BR51,Terra Nova do Norte,BR5108055,No
7804c9ae-62e4-3ed3-838b-aeb001927783,Brazil,government,51009340,EM VISTA ALEGRE,-10.5834,-54.9711,0.67,200,No,Municipal,Urban,Yes,5.0,Centro-Oeste,5,Mato Grosso,BR51,Terra Nova do Norte,BR5108055,Yes
02167d0c-1c64-343a-b3b2-f5d4e16c261e,Brazil,government,51009358,ESCOLA MUNICIPAL XANXERE,-10.479,-55.0529,0.94,114,No,Municipal,Rural,Yes,2.0,Centro-Oeste,5,Mato Grosso,BR51,Terra Nova do Norte,BR5108055,Yes
44a4869c-aa9c-3e51-ad7b-f713c26bee46,Brazil,government,51009579,ESCOLA MUNICIPAL RIBEIRAO BONITO,-10.4202,-54.8522,1.0,50,No,Municipal,Rural,Yes,2.0,Centro-Oeste,5,Mato Grosso,BR51,Terra Nova do Norte,BR5108055,No
8820d97e-4ce6-31f6-bd71-520f7b8df45e,Brazil,government,51009609,EE 12 ABRIL,-10.5834,-54.9711,0.67,762,Yes,Estadual,Urban,Yes,5.0,Centro-Oeste,5,Mato Grosso,BR51,Terra Nova do Norte,BR5108055,Yes
4d5c817d-68ba-36b9-95b7-525ab99b1662,Brazil,government,51009617,EE NORBERTO SCHWANTES,-10.5834,-54.9711,0.67,362,Yes,Estadual,Urban,Yes,5.0,Centro-Oeste,5,Mato Grosso,BR51,Terra Nova do Norte,BR5108055,Yes
0ade7f4a-a6e8-3ff4-85df-8c1cdd3a86ab,Brazil,government,51009625,ESCOLA MUNICIPAL CHARRUA,-10.5834,-54.9711,1.0,0,,Municipal,Rural,,,Centro-Oeste,5,Mato Grosso,BR51,Terra Nova do Norte,BR5108055,No
5e3eefaf-4f89-382f-acdb-41a2223491cf,Brazil,government,51009633,ESCOLA MUNICIPAL MINUANO,-10.5834,-54.9711,0.67,80,No,Municipal,Rural,Yes,5.0,Centro-Oeste,5,Mato Grosso,BR51,Terra Nova do Norte,BR5108055,Yes
3e809de6-92b0-357c-8efc-66265df1f329,Brazil,government,51009641,ESCOLA MUNICIPAL MIRAGUAI,-10.3662,-55.0297,1.0,126,No,Municipal,Rural,Yes,2.0,Centro-Oeste,5,Mato Grosso,BR51,Terra Nova do Norte,BR5108055,Yes
3a0b7a58-3719-303b-9875-f7fd2a1eb616,Brazil,government,51009650,E M NORBERTO SCHWANTES,-10.3936,-54.9228,1.0,129,No,Municipal,Rural,Yes,2.0,Centro-Oeste,5,Mato Grosso,BR51,Terra Nova do Norte,BR5108055,Yes
654ab417-96c0-38a4-9b0d-e0863dead7da,Brazil,government,51009730,EE 13 DE MAIO,-10.292,-55.3394,0.61,497,Yes,Estadual,Urban,Yes,5.0,Centro-Oeste,5,Mato Grosso,BR51,Nova Guarita,BR5108808,Yes
6aa41cf1-462c-3b43-90c2-e03bee8176d9,Brazil,government,51009749,ESCOLA MUNICIPAL SANTA ISABEL,-10.292,-55.3394,0.61,259,Yes,Municipal,Urban,Yes,5.0,Centro-Oeste,5,Mato Grosso,BR51,Nova Guarita,BR5108808,Yes
b23bef16-44b8-309c-ba05-fe71a672a426,Brazil,government,51009838,ESCOLA MUNICIPAL PLANALTO,-10.4404,-55.2813,1.0,126,Yes,Municipal,Rural,Yes,5.0,Centro-Oeste,5,Mato Grosso,BR51,Nova Guarita,BR5108808,Yes
638f7594-b098-3105-9fd4-d66c74f2e0ce,Brazil,government,51009986,EE ARGEU AUGUSTO DE MORAES,-13.7385,-57.8994,0.67,482,No,Estadual,Rural,Yes,5.0,Centro-Oeste,5,Mato Grosso,BR51,Campo Novo do Parecis,BR5102637,Yes
8cdbd90c-3661-37f2-87a1-6e2a7154ca6a,Brazil,government,51010011,EM DE ED INDIGENA BACAVAL,-13.7385,-57.8994,0.67,12,No,Municipal,Rural,Yes,5.0,Centro-Oeste,5,Mato Grosso,BR51,Campo Novo do Parecis,BR5102637,Yes
3d35bdb6-7211-3893-b5c0-4ca055172c98,Brazil,government,51010020,EM PROFESSOR ANTONIO PEREIRA,-13.6658,-57.8967,1.0,719,Yes,Municipal,Urban,Yes,5.0,Centro-Oeste,5,Mato Grosso,BR51,Campo Novo do Parecis,BR5102637,Yes
775ed0e0-95dc-35b0-bd98-3e9944540e43,Brazil,government,51010062,EMEIEF FRANCIOSI,-13.1544,-58.6523,0.67,32,No,Municipal,Rural,Yes,5.0,Centro-Oeste,5,Mato Grosso,BR51,Sapezal,BR5107875,Yes
ca7ee6c0-69cf-3da3-85f8-ce9914005961,Brazil,government,51010070,ESCOLA INDIGENA WAKALITESU,-13.1544,-58.6523,0.67,21,Yes,Municipal,Rural,Yes,5.0,Centro-Oeste,5,Mato Grosso,BR51,Sapezal,BR5107875,Yes
4e635a4a-499f-3237-b131-ee35f24ed54d,Brazil,government,51010119,EM DE ED INDIGENA SAKORE KASE WETEKO,-13.7385,-57.8994,0.67,26,No,Municipal,Rural,Yes,5.0,Centro-Oeste,5,Mato Grosso,BR51,Campo Novo do Parecis,BR5102637,Yes
93fae3d5-b24e-33f0-b341-090c0c1da2a0,Brazil,government,51010127,ESCOLA INDIGENA SALTO DA MULHER,-13.1544,-58.6523,0.67,5,No,Municipal,Rural,Yes,5.0,Centro-Oeste,5,Mato Grosso,BR51,Sapezal,BR5107875,Yes
691a0fdb-0158-3d7d-bea5-53d1019dc95f,Brazil,government,51010143,EMEIEF JAIME MARCELO SCHECHELI,-13.1544,-58.6523,0.67,165,Yes,Municipal,Rural,Yes,2.0,Centro-Oeste,5,Mato Grosso,BR51,Sapezal,BR5107875,Yes
6681c278-4950-3976-ad3c-cc32afe234f5,Brazil,government,51010160,EM DE ED INDIGENA SERINGAL,-13.7385,-57.8994,0.67,33,No,Municipal,Rural,Yes,5.0,Centro-Oeste,5,Mato Grosso,BR51,Campo Novo do Parecis,BR5102637,Yes
61e4c08e-71ff-3be5-b40f-3c76a933ef64,Brazil,government,51010186,EMPG UTIARITI,-13.1544,-58.6523,1.0,0,,Municipal,Rural,,,Centro-Oeste,5,Mato Grosso,BR51,Sapezal,BR5107875,No
99227b98-676a-33fe-a297-b2767e73ee69,Brazil,government,51010224,EE MADRE TARCILA,-13.66,-57.8872,0.89,1206,Yes,Estadual,Urban,Yes,5.0,Centro-Oeste,5,Mato Grosso,BR51,Campo Novo do Parecis,BR5102637,Yes
7621042c-4bf2-33e1-9af9-568fbe370208,Brazil,government,51010232,ESCOLA MUNICIPAL 04 DE JULHO,-13.6603,-57.8861,1.0,744,Yes,Municipal,Urban,Yes,5.0,Centro-Oeste,5,Mato Grosso,BR51,Campo Novo do Parecis,BR5102637,Yes
74c5e29b-d127-38d3-86f5-35875a1baf44,Brazil,government,51010275,EMEIEF ANTONIO CLARISMUNDO SCHEFFER,-13.1544,-58.6523,0.67,1280,Yes,Municipal,Urban,Yes,5.0,Centro-Oeste,5,Mato Grosso,BR51,Sapezal,BR5107875,Yes
65c0eaeb-3b94-343f-9f9d-6220e548f0e5,Brazil,government,51010313,EM ERICO VERISSIMO,-13.0567,-59.4158,0.67,421,Yes,Municipal,Urban,Yes,5.0,Centro-Oeste,5,Mato Grosso,BR51,Comodoro,BR5103304,Yes
b88d502e-7c79-3cee-bced-aa06fe5bcd9b,Brazil,government,51010321,ESCOLA MUNICIPAL INDIGENA NAMBIKUARA,-13.0567,-59.4158,0.67,176,No,Municipal,Rural,No,0.0,Centro-Oeste,5,Mato Grosso,BR51,Comodoro,BR5103304,Yes
1cd48013-9415-36b5-9ea8-5fb1da8d4b37,Brazil,government,51010348,EM NOSSA SENHORA DAS GRACAS,-13.663,-59.7895,0.94,459,Yes,Municipal,Urban,Yes,5.0,Centro-Oeste,5,Mato Grosso,BR51,Comodoro,BR5103304,Yes
85b5222d-5a78-3711-8e6b-f0cbc781d997,Brazil,government,51010372,EE DONA ROSA FRIGGER PIOVEZAN,-13.6546,-59.7831,1.0,810,Yes,Estadual,Urban,Yes,5.0,Centro-Oeste,5,Mato Grosso,BR51,Comodoro,BR5103304,Yes
bc88a4f0-4592-30cf-bb4d-8f80dd57662c,Brazil,government,51010445,EMEF ELIZA K TOME,-13.5794,-59.1914,0.67,130,Yes,Municipal,Rural,Yes,5.0,Centro-Oeste,5,Mato Grosso,BR51,Campos de Júlio,BR5102686,Yes
bbf87119-4eb5-3148-818f-bbc6cf837f06,Brazil,government,51010470,EE ANGELINA FRANCISCON MAZUTTI,-13.5794,-59.1914,0.67,817,Yes,Estadual,Urban,Yes,2.0,Centro-Oeste,5,Mato Grosso,BR51,Campos de Júlio,BR5102686,Yes
4a9b3a63-7484-3af5-8933-dc0da22445dc,Brazil,government,51010550,EM CASTELO BRANCO,-13.0567,-59.4158,1.0,0,,Municipal,Rural,,,Centro-Oeste,5,Mato Grosso,BR51,Comodoro,BR5103304,Yes
e1c4225c-9f23-3418-b0e9-1ed43747e91c,Brazil,government,51010658,EE DEPDJALMA CARNEIRO DA ROCHA,-13.0567,-59.4158,0.67,299,Yes,Estadual,Rural,Yes,2.0,Centro-Oeste,5,Mato Grosso,BR51,Comodoro,BR5103304,Yes
45e57221-f505-35d0-a6da-b93f3d3d9996,Brazil,government,51010879,ESCOLA MUNICIPAL ELZA MARTINS DE QUEIROZ OLIVEIRA,-14.4151,-56.4539,1.0,252,Yes,Municipal,Urban,Yes,5.0,Centro-Oeste,5,Mato Grosso,BR51,Diamantino,BR5103502,Yes
b3e2037c-50cd-39cc-91d5-3347b27b4ad9,Brazil,government,51010909,EE IR LUCINDA FACCHINI,-14.4081,-56.4516,1.0,397,Yes,Estadual,Urban,Yes,5.0,Centro-Oeste,5,Mato Grosso,BR51,Diamantino,BR5103502,Yes
efe80249-fb2d-3779-9dbd-fd1aa46a09d9,Brazil,government,51010917,EE SERRA AZUL,-14.374,-56.3949,0.94,644,Yes,Estadual,Urban,Yes,5.0,Centro-Oeste,5,Mato Grosso,BR51,Diamantino,BR5103502,Yes
794c247f-c3ee-3f5b-8d10-38ada21c4b4c,Brazil,government,51010950,EM JOSE FRANCISCO KROHLING,-14.1296,-56.694,0.94,19,Yes,Municipal,Rural,Yes,5.0,Centro-Oeste,5,Mato Grosso,BR51,Diamantino,BR5103502,Yes
00135559-73b3-3cea-bfc8-ca146e4adbef,Brazil,government,51011107,EMPG CASTORINA SABO MENDES,-14.3982,-56.4353,1.0,306,Yes,Municipal,Urban,Yes,5.0,Centro-Oeste,5,Mato Grosso,BR51,Diamantino,BR5103502,Yes
522a4eaa-21e7-3b6e-82e3-4a727d2f74e6,Brazil,government,51011123,EMPG BRAS MAIMONI,-14.4076,-56.4575,1.0,123,Yes,Municipal,Urban,Yes,5.0,Centro-Oeste,5,Mato Grosso,BR51,Diamantino,BR5103502,Yes
0900f91e-1194-370d-a4b9-7c870fab6baf,Brazil,government,51011131,ESCOLA MUNICIPAL DECIO FURIGO,-14.1829,-57.5072,1.0,195,No,Municipal,Rural,Yes,5.0,Centro-Oeste,5,Mato Grosso,BR51,Diamantino,BR5103502,Yes
3064f2cf-2fc6-32b5-b0d2-a561812647fa,Brazil,government,51011166,EE PLACIDO DE CASTRO,-14.4052,-56.4457,1.0,210,No,Estadual,Urban,Yes,5.0,Centro-Oeste,5,Mato Grosso,BR51,Diamantino,BR5103502,Yes
cd7be5f1-8481-33b1-b16f-a3404897718d,Brazil,government,51011174,EE MANOEL JOSE MURTINHO,-14.3757,-56.386,0.94,295,Yes,Estadual,Urban,Yes,5.0,Centro-Oeste,5,Mato Grosso,BR51,Diamantino,BR5103502,Yes
8c86ce32-7282-3bc8-8e90-850b6953b604,Brazil,government,51011182,EE NILCE MARIA MAGALHAES,-14.4176,-56.4408,1.0,260,Yes,Estadual,Urban,Yes,2.0,Centro-Oeste,5,Mato Grosso,BR51,Diamantino,BR5103502,Yes
d18c2bdd-b992-3951-a9ab-73a4cd990aca,Brazil,government,51011212,ESCOLA MUNICIPAL DE PRE E 1,-14.3788,-56.379,0.94,169,Yes,Municipal,Urban,Yes,5.0,Centro-Oeste,5,Mato Grosso,BR51,Diamantino,BR5103502,Yes
951416ee-04bc-393f-9fda-e219dd0fc0f4,Brazil,government,51011263,C M MADRE PAULINA,-10.7527,-57.2041,0.67,127,No,Municipal,Urban,Yes,5.0,Centro-Oeste,5,Mato Grosso,BR51,Juara,BR5105101,Yes
a8bdb4c8-7b17-38a5-9786-8e72fd275783,Brazil,government,51011298,EE CECILIA DE CASTRO BARBOSA,-11.1939,-57.3114,1.0,124,No,Estadual,Rural,Yes,2.0,Centro-Oeste,5,Mato Grosso,BR51,Juara,BR5105101,Yes
a513624e-ea1e-34db-ad9f-9e6c3e1ea3ee,Brazil,government,51011417,EEI PE DE MUTUM,-10.7527,-57.2041,0.67,179,No,Estadual,Rural,Yes,2.0,Centro-Oeste,5,Mato Grosso,BR51,Juara,BR5105101,Yes
f2b8c76a-7044-3b3b-aa8b-51e78e378d51,Brazil,government,51011654,E M PRESIDENTE COSTA E SILVA,-10.7527,-57.2041,0.67,371,Yes,Municipal,Urban,Yes,5.0,Centro-Oeste,5,Mato Grosso,BR51,Juara,BR5105101,Yes
92bcbc9b-0b88-3e54-a0f5-76438d2446ee,Brazil,government,51011727,EMPG FRANCISCO SAMPAIO,-10.5879,-57.7974,1.0,226,No,Municipal,Rural,Yes,2.0,Centro-Oeste,5,Mato Grosso,BR51,Juara,BR5105101,Yes
f4097ef4-2d92-3316-bf2b-3064679c367f,Brazil,government,51011786,CEJA JOSE DIAS,-11.2485,-57.5066,1.0,494,Yes,Estadual,Urban,Yes,5.0,Centro-Oeste,5,Mato Grosso,BR51,Juara,BR5105101,Yes
22afe530-0269-373b-a8bb-6867b04b4e0e,Brazil,government,51011794,EE OSCAR SOARES,-11.2522,-57.5077,1.0,963,Yes,Estadual,Urban,Yes,5.0,Centro-Oeste,5,Mato Grosso,BR51,Juara,BR5105101,Yes
18cc88f0-11d6-35f0-b1d4-2a23184cde05,Brazil,government,51011808,EE IARA MARIA MINOTTO GOMES,-10.7527,-57.2041,0.67,730,Yes,Estadual,Urban,Yes,5.0,Centro-Oeste,5,Mato Grosso,BR51,Juara,BR5105101,Yes
a4443829-de88-3654-9ac5-f1e6b8645574,Brazil,government,51011816,EE DOM AQUINO CORREA,-11.0711,-57.57,0.89,250,Yes,Estadual,Rural,Yes,2.0,Centro-Oeste,5,Mato Grosso,BR51,Juara,BR5105101,Yes
c9c8a764-4ec5-39d4-a71d-fbc9526736a0,Brazil,government,51011824,EE LUIZA NUNES BEZERRA,-10.7527,-57.2041,0.67,811,Yes,Estadual,Urban,Yes,5.0,Centro-Oeste,5,Mato Grosso,BR51,Juara,BR5105101,Yes
f96d22fe-5139-3e09-932d-0630af9bbc86,Brazil,government,51011859,E M PINGO DE GENTE,-11.251,-57.5135,0.94,265,No,Municipal,Urban,Yes,5.0,Centro-Oeste,5,Mato Grosso,BR51,Juara,BR5105101,Yes
060666d7-5863-3d19-83d4-708ec50ddf87,Brazil,government,51011867,ESCOLA M MARIA DAS G CALMON REQUENA,-10.7527,-57.2041,0.67,315,No,Municipal,Urban,Yes,5.0,Centro-Oeste,5,Mato Grosso,BR51,Juara,BR5105101,Yes
79896839-7767-3731-960d-68a0bf971d64,Brazil,government,51011964,EMPG NOSSA SENHORA DE LOURDES,-11.4014,-58.1152,1.0,15,No,Municipal,Rural,Yes,5.0,Centro-Oeste,5,Mato Grosso,BR51,Juara,BR5105101,Yes
393b6d2a-64b6-36fe-b827-011257a73a5f,Brazil,government,51012014,ESCOLA MUNICIPAL RUI BARBOSA,-11.364,-57.8803,0.94,162,Yes,Municipal,Rural,Yes,5.0,Centro-Oeste,5,Mato Grosso,BR51,Juara,BR5105101,Yes
9986b22d-0d2c-33af-840c-83bf4ca7e75c,Brazil,government,51012030,EMPG BAIRRO MACHADO,-10.9444,-57.0317,1.0,23,No,Municipal,Rural,Yes,5.0,Centro-Oeste,5,Mato Grosso,BR51,Juara,BR5105101,Yes
82dee7d3-7beb-34a3-9849-692d664f4c1c,Brazil,government,51012103,ESCOLA MUNICIPAL RENASCER,-10.7237,-57.8811,1.0,23,No,Municipal,Rural,Yes,5.0,Centro-Oeste,5,Mato Grosso,BR51,Juara,BR5105101,Yes
e91216ad-d430-3d2f-a373-7dd9b0a37a30,Brazil,government,51012146,EE ROSMAY KARA JOSE,-11.3889,-57.3153,1.0,495,Yes,Estadual,Urban,Yes,5.0,Centro-Oeste,5,Mato Grosso,BR51,Novo Horizonte do Norte,BR5106273,Yes
ad22748f-41e0-39be-b72b-57009d8900b1,Brazil,government,51012332,EMPG ULISSES GUIMARAES,-11.3879,-57.3168,1.0,220,Yes,Municipal,Urban,Yes,5.0,Centro-Oeste,5,Mato Grosso,BR51,Novo Horizonte do Norte,BR5106273,Yes
90fc40b1-8d1b-3086-a18c-54e11e1c461e,Brazil,government,51012375,ESCOLA MUNICIPAL PROFESSORA NEIVA DOS SANTOS BEZERRA,-11.3844,-57.3077,0.67,94,No,Municipal,Urban,Yes,5.0,Centro-Oeste,5,Mato Grosso,BR51,Novo Horizonte do Norte,BR5106273,Yes
62f61a5a-d0ce-3b72-8542-9847c80e9977,Brazil,government,51012383,EE RENATO SPINELLI,-11.7303,-56.7453,0.67,132,Yes,Estadual,Rural,Yes,5.0,Centro-Oeste,5,Mato Grosso,BR51,Porto dos Gaúchos,BR5106802,Yes
e4c3f5e2-c62a-352c-b9e9-97519b0c0c4f,Brazil,government,51012421,EMPG GUSTAVO ADOLFO WILKE,-11.7303,-56.7453,0.67,477,Yes,Municipal,Urban,Yes,5.0,Centro-Oeste,5,Mato Grosso,BR51,Porto dos Gaúchos,BR5106802,Yes
45833541-9323-3137-80cd-6c98a540f714,Brazil,government,51012448,EE JOSE CLETO GIEHL,-11.6177,-57.2352,1.0,126,Yes,Estadual,Rural,Yes,2.0,Centro-Oeste,5,Mato Grosso,BR51,Porto dos Gaúchos,BR5106802,Yes
1607b188-036a-38ff-816c-f167e131159b,Brazil,government,51012553,ESC MUL I G VALSIR ANDRE FERRARINI,-11.7103,-56.869,0.94,48,No,Municipal,Rural,Yes,2.0,Centro-Oeste,5,Mato Grosso,BR51,Porto dos Gaúchos,BR5106802,Yes
0cf2ffd7-bd7e-3773-ac37-9163723e686b,Brazil,government,51012600,EE JOSE ALVES BEZERRA,-11.7303,-56.7453,0.67,483,No,Estadual,Urban,Yes,2.0,Centro-Oeste,5,Mato Grosso,BR51,Porto dos Gaúchos,BR5106802,Yes
d2445fe9-c072-389d-b514-11ae38bb4bf6,Brazil,government,51012669,ESCOLA MUNICIPAL PAULO DE ALMEIDA COSTA,-11.7303,-56.7453,0.67,29,No,Municipal,Rural,Yes,2.0,Centro-Oeste,5,Mato Grosso,BR51,Porto dos Gaúchos,BR5106802,Yes
be3418e0-69cf-3488-b77c-a60e46bd1ce8,Brazil,government,51012774,EE DR ANISIO JOSE MOREIRA,-13.4488,-56.723,0.94,628,No,Estadual,Urban,Yes,5.0,Centro-Oeste,5,Mato Grosso,BR51,São José do Rio Claro,BR5107305,Yes
7b82d73d-95f1-397d-8517-46a6bf3ba436,Brazil,government,51012812,EMPG ANTONIO M SOUZA,-13.5511,-56.8073,1.0,0,,Municipal,Rural,,,Centro-Oeste,5,Mato Grosso,BR51,São José do Rio Claro,BR5107305,Yes
01b39630-a2a3-395a-b4ae-e7763add7104,Brazil,government,51012839,EMPG ALAIR ALVES SCHMIDT,-13.5511,-56.8073,1.0,0,,Municipal,Rural,,,Centro-Oeste,5,Mato Grosso,BR51,São José do Rio Claro,BR5107305,Yes
91e3b55f-6c77-3ff4-9a22-85fb14337ab8,Brazil,government,51012901,ESCOLA MUNICIPAL JOAO TREVISAN,-13.5511,-56.8073,0.67,624,Yes,Municipal,Urban,Yes,5.0,Centro-Oeste,5,Mato Grosso,BR51,São José do Rio Claro,BR5107305,Yes
5560f47c-b7cf-36fe-a247-5051a8e32ce7,Brazil,government,51012910,EMPG PEDRO AIRES,-13.5511,-56.8073,1.0,0,,Municipal,Rural,,,Centro-Oeste,5,Mato Grosso,BR51,São José do Rio Claro,BR5107305,Yes
666fb7fd-ddd1-3465-a332-83dce7bed684,Brazil,government,51012928,E M PEDRO COELHO PORTILHO,-13.5511,-56.8073,0.67,457,No,Municipal,Urban,Yes,5.0,Centro-Oeste,5,Mato Grosso,BR51,São José do Rio Claro,BR5107305,Yes
cb0903c2-dd3f-3ddf-a94f-475d8fb3dc7f,Brazil,government,51012944,E M JOSE CEZARIO DE CASTILHO,-13.4457,-56.713,0.94,509,Yes,Municipal,Urban,Yes,5.0,Centro-Oeste,5,Mato Grosso,BR51,São José do Rio Claro,BR5107305,Yes
b239ee6d-d381-3d78-8fe7-31c94182d31f,Brazil,government,51012952,EE DOMINGOS BRIANTE,-13.5511,-56.8073,0.67,909,Yes,Estadual,Urban,Yes,5.0,Centro-Oeste,5,Mato Grosso,BR51,São José do Rio Claro,BR5107305,Yes
d17d62f0-e603-3148-bc17-c476de5b8357,Brazil,government,51012960,EE SAO JOSE DO RIO CLARO,-13.4457,-56.7194,1.0,125,Yes,Estadual,Urban,Yes,5.0,Centro-Oeste,5,Mato Grosso,BR51,São José do Rio Claro,BR5107305,Yes
e8e6119a-d424-3040-a534-bddfdce6bb5f,Brazil,government,51012995,EMPG CAETANO DIAS,-13.5511,-56.8073,1.0,0,,Municipal,Rural,,,Centro-Oeste,5,Mato Grosso,BR51,São José do Rio Claro,BR5107305,Yes
5c99c3f9-0fe1-3f1c-b286-a73d1cd0f032,Brazil,government,51013053,ESCOLA MUNICIPAL MOACIR SEMENSATO,-11.2083,-56.4946,0.67,148,Yes,Municipal,Rural,Yes,5.0,Centro-Oeste,5,Mato Grosso,BR51,Tabaporã,BR5107941,Yes
72ac5363-2329-3730-91a0-519afad7e4cb,Brazil,government,51013177,EE FRANCISCO SALDANHA NETO,-11.2083,-56.4946,0.67,383,Yes,Estadual,Urban,Yes,2.0,Centro-Oeste,5,Mato Grosso,BR51,Tabaporã,BR5107941,Yes
9c92f6ef-6ebf-315b-bebe-d63b3ba30248,Brazil,government,51013207,ESCOLA ESTADUAL OSMAIR PINHEIRO DA SILVA,-13.0282,-57.0911,1.0,460,Yes,Estadual,Urban,Yes,5.0,Centro-Oeste,5,Mato Grosso,BR51,Nova Maringá,BR5108907,Yes
3f623c50-9744-3b7a-b0a5-2f6db49a9d2d,Brazil,government,51013304,E M WILSON RIBEIRO,-13.0386,-57.0949,1.0,420,No,Municipal,Urban,Yes,5.0,Centro-Oeste,5,Mato Grosso,BR51,Nova Maringá,BR5108907,Yes
77d91c20-0b1f-3299-b1bb-d493bda206a5,Brazil,government,51013517,EMEIEF FREDOLINO VIEIRA BARROS,-13.0824,-56.1468,0.67,598,Yes,Municipal,Rural,Yes,2.0,Centro-Oeste,5,Mato Grosso,BR51,Lucas do Rio Verde,BR5105259,Yes
946d865d-8ec6-3173-b91c-bf6682d48fce,Brazil,government,51013533,EMEF CAMINHO PARA O FUTURO,-13.0822,-55.9106,1.0,1088,No,Municipal,Urban,Yes,5.0,Centro-Oeste,5,Mato Grosso,BR51,Lucas do Rio Verde,BR5105259,Yes
37d5e1f7-fe62-3e02-8979-21e219fb7e08,Brazil,government,51013541,EMEF MENINO DEUS,-13.0786,-55.9297,1.0,1029,No,Municipal,Urban,Yes,5.0,Centro-Oeste,5,Mato Grosso,BR51,Lucas do Rio Verde,BR5105259,Yes
ece1ebc6-c292-3280-920f-e47922124855,Brazil,government,51013568,EE DOM BOSCO,-13.0824,-56.1468,0.67,1806,Yes,Estadual,Urban,Yes,5.0,Centro-Oeste,5,Mato Grosso,BR51,Lucas do Rio Verde,BR5105259,Yes
2aa0f1b8-9c7e-31b2-a415-49e55664858a,Brazil,government,51013576,EE ANGELO NADIN,-13.068,-55.9353,0.94,873,No,Estadual,Urban,Yes,5.0,Centro-Oeste,5,Mato Grosso,BR51,Lucas do Rio Verde,BR5105259,Yes
afd2f765-f74f-36cf-ace8-6b0a805d1438,Brazil,government,51013584,EMEF ECA DE QUEIROS,-13.0824,-56.1468,0.67,856,No,Municipal,Urban,Yes,5.0,Centro-Oeste,5,Mato Grosso,BR51,Lucas do Rio Verde,BR5105259,Yes
72e29e48-9868-356c-8f2a-e85d95cf8f4f,Brazil,government,51013592,EMEIEF SAO CRISTOVAO,-13.3078,-56.04,0.89,524,Yes,Municipal,Rural,Yes,5.0,Centro-Oeste,5,Mato Grosso,BR51,Lucas do Rio Verde,BR5105259,Yes
8845c212-5d0c-3e8a-a9bb-62768ac319e3,Brazil,government,51013690,ESCOLA MUNICIPAL ZEFERINO DORNELES COSTA,-14.5488,-55.8722,1.0,160,No,Municipal,Rural,Yes,5.0,Centro-Oeste,5,Mato Grosso,BR51,Nobres,BR5105903,Yes
b251968a-99e7-3c76-ae38-f92d235b07fe,Brazil,government,51013746,ESCOLA MUNICIPAL INDIGENA CEL OLAVO MENDES DUARTE,-14.2289,-55.4789,1.0,37,No,Municipal,Rural,Yes,5.0,Centro-Oeste,5,Mato Grosso,BR51,Nobres,BR5105903,Yes
2fea074a-2fba-34fc-9ee5-f42745463e15,Brazil,government,51013975,EE INOCENCIA RACHID JAUDY,-14.7252,-56.3305,1.0,551,No,Estadual,Urban,Yes,5.0,Centro-Oeste,5,Mato Grosso,BR51,Nobres,BR5105903,Yes
6ef8b4f7-3469-37dd-a3c3-21723e462002,Brazil,government,51013983,EE DR FABIO SILVERIO FARIAS,-14.4976,-56.127,0.61,454,No,Estadual,Urban,Yes,5.0,Centro-Oeste,5,Mato Grosso,BR51,Nobres,BR5105903,Yes
83ec5394-3bb5-3cef-8ce8-cda034ffffed,Brazil,government,51014050,EE PROF NILO POVOAS,-14.7224,-56.3352,1.0,640,Yes,Estadual,Urban,Yes,5.0,Centro-Oeste,5,Mato Grosso,BR51,Nobres,BR5105903,Yes
2f763499-f05e-3019-8f5c-55d8a5e83723,Brazil,government,51014068,ESCOLA MUNICIPAL PROFESSORA DALCI CANDIDA DE SOUZA,-14.4976,-56.127,0.61,371,No,Municipal,Urban,Yes,5.0,Centro-Oeste,5,Mato Grosso,BR51,Nobres,BR5105903,Yes
dfa96d49-8b6d-3dd0-889e-76a504df38a6,Brazil,government,51014076,EE PROF MARIO A NASSARDEN,-14.7108,-56.3297,1.0,904,Yes,Estadual,Urban,Yes,5.0,Centro-Oeste,5,Mato Grosso,BR51,Nobres,BR5105903,Yes
6f46499c-56bf-3396-9446-7f65544f4300,Brazil,government,51014149,ESCOLA MUNICIPAL MARECHAL CANDIDO RONDON,-14.5429,-55.9762,1.0,221,No,Municipal,Rural,Yes,5.0,Centro-Oeste,5,Mato Grosso,BR51,Nobres,BR5105903,Yes
c0c02a2c-535b-3b5f-8d13-7349adbbba1a,Brazil,government,51014203,CMEBI TANCREDO NEVES,-13.8112,-56.0766,1.0,490,No,Municipal,Urban,Yes,5.0,Centro-Oeste,5,Mato Grosso,BR51,Nova Mutum,BR5106224,Yes
e912685a-ccb7-31cb-ba28-2038451c410a,Brazil,government,51014238,EE JOSE APARECIDO RIBEIRO,-13.8253,-56.0845,0.67,1561,Yes,Estadual,Urban,Yes,5.0,Centro-Oeste,5,Mato Grosso,BR51,Nova Mutum,BR5106224,Yes
b219d4f6-4d21-3431-a70f-8d61eba07aa9,Brazil,government,51014297,EMC SAO JOSE,-13.5974,-55.8724,1.0,88,Yes,Municipal,Rural,Yes,5.0,Centro-Oeste,5,Mato Grosso,BR51,Nova Mutum,BR5106224,Yes
eb3103a9-b36f-3b79-bacc-7567abb1dd51,Brazil,government,51014335,ESCOLA MUNICIPAL SAO CARLOS,-13.6306,-56.1036,1.0,0,,Municipal,Rural,,,Centro-Oeste,5,Mato Grosso,BR51,Nova Mutum,BR5106224,No
c6c31ab0-2d10-3f8d-a274-d47d3f97917a,Brazil,government,51014360,EMPG MAFRA,-13.6306,-56.1036,1.0,0,,Municipal,Rural,,,Centro-Oeste,5,Mato Grosso,BR51,Nova Mutum,BR5106224,No
fd35a1b8-f5ab-3733-aff0-248cf743d256,Brazil,government,51014408,EM TRES DE NOVEMBRO,-13.8323,-55.2945,0.67,540,Yes,Municipal,Urban,Yes,5.0,Centro-Oeste,5,Mato Grosso,BR51,Santa Rita do Trivelato,BR5107768,Yes
ee0f8b7e-1ee7-33f4-82c5-9967a37d0ec9,Brazil,government,51014432,ESCOLA MUNICIPAL RURAL PRODUTIVA RANCHAO,-13.8276,-55.7016,1.0,116,Yes,Municipal,Rural,Yes,5.0,Centro-Oeste,5,Mato Grosso,BR51,Nova Mutum,BR5106224,Yes
551d5b23-978b-355d-ab53-6a9b9caa8abc,Brazil,government,51014475,EE IGNACIO SCHEVINSKI FILHO,-12.5594,-55.7108,1.0,1539,No,Estadual,Urban,Yes,5.0,Centro-Oeste,5,Mato Grosso,BR51,Sorriso,BR5107925,Yes
2575cb01-6769-304a-a1f7-30a987e00a48,Brazil,government,51014505,ESCOLA MUNICIPAL PROFESSORA MARIA TERESA PALOSCHI,-12.393,-55.7611,0.61,35,No,Municipal,Rural,Yes,5.0,Centro-Oeste,5,Mato Grosso,BR51,Sorriso,BR5107925,Yes
ef35cb9f-dbae-3d8b-a38f-9a1fb6aca7bc,Brazil,government,51014513,EM FLOR DO AMANHA,-12.5517,-55.7022,1.0,331,Yes,Municipal,Urban,Yes,5.0,Centro-Oeste,5,Mato Grosso,BR51,Sorriso,BR5107925,Yes
1bc78325-3b1d-37dc-ba27-40e55f29a435,Brazil,government,51014521,EM GENTE SABIDA,-12.393,-55.7611,0.61,406,Yes,Municipal,Urban,Yes,5.0,Centro-Oeste,5,Mato Grosso,BR51,Sorriso,BR5107925,Yes
a7899f15-3fde-35a3-b59f-41a867212991,Brazil,government,51014548,ESCOLA MUNICIPAL PROF,-12.5393,-55.724,0.94,1365,Yes,Municipal,Urban,Yes,5.0,Centro-Oeste,5,Mato Grosso,BR51,Sorriso,BR5107925,Yes
364dc8bf-8f7d-37bf-b267-14b6aff8c145,Brazil,government,51014599,ESCOLA MUNICIPAL RUI BARBOSA,-12.5552,-55.7331,1.0,470,Yes,Municipal,Urban,Yes,5.0,Centro-Oeste,5,Mato Grosso,BR51,Sorriso,BR5107925,Yes
8d153c58-1d04-34de-9877-e3708ca22e62,Brazil,government,51014602,EM SAO DOMINGOS,-12.5544,-55.7033,1.0,747,Yes,Municipal,Urban,Yes,5.0,Centro-Oeste,5,Mato Grosso,BR51,Sorriso,BR5107925,Yes
e20763a9-0fdf-37e5-af5b-e18354fa4508,Brazil,government,51014645,EM PROF,-12.393,-55.7611,0.61,128,Yes,Municipal,Urban,Yes,5.0,Centro-Oeste,5,Mato Grosso,BR51,Sorriso,BR5107925,Yes
4441e3d0-0826-36ec-9b7a-4c0a4883416c,Brazil,government,51014726,E M PAPA JOAO PAULO II,-12.5622,-55.7166,1.0,768,No,Municipal,Urban,Yes,5.0,Centro-Oeste,5,Mato Grosso,BR51,Sorriso,BR5107925,Yes
04cc6b91-38c6-3568-8530-53b86076fa09,Brazil,government,51014750,ESCOLA MUNICIPAL AURELIANO PEREIRA DA SILVA,-12.5429,-55.7347,1.0,866,Yes,Municipal,Urban,Yes,5.0,Centro-Oeste,5,Mato Grosso,BR51,Sorriso,BR5107925,Yes
c452d64a-df76-3423-a191-f926ffc09a9e,Brazil,government,51014769,EE 13 DE MAIO,-12.5434,-55.7282,1.0,1839,No,Estadual,Urban,Yes,2.0,Centro-Oeste,5,Mato Grosso,BR51,Sorriso,BR5107925,Yes
442e28d5-13fe-33ed-9556-50c2499f8e56,Brazil,government,51014777,CEJA ARAO GOMES BEZERRA,-12.393,-55.7611,0.61,789,Yes,Estadual,Urban,Yes,5.0,Centro-Oeste,5,Mato Grosso,BR51,Sorriso,BR5107925,Yes
6f980203-4427-3407-93d8-8d56701b0ade,Brazil,government,51014785,EE MARIO SPINELLI,-12.5362,-55.7197,1.0,343,Yes,Estadual,Urban,Yes,5.0,Centro-Oeste,5,Mato Grosso,BR51,Sorriso,BR5107925,Yes
a83117d8-9dcc-3fb4-8478-4b86e82748bb,Brazil,government,51014793,EM BOA ESPERANCA,-13.4731,-55.2515,0.67,473,Yes,Municipal,Rural,Yes,5.0,Centro-Oeste,5,Mato Grosso,BR51,Sorriso,BR5107925,Yes
fa120122-b6d4-3d04-946e-e2748b8022cf,Brazil,government,51014815,EM CARAVAGIO,-13.1317,-55.4832,1.0,155,No,Municipal,Rural,Yes,2.0,Centro-Oeste,5,Mato Grosso,BR51,Sorriso,BR5107925,Yes
f1268c44-e84f-3c26-951a-538464030a36,Brazil,government,51014823,E M TANCREDO NEVES,-12.9935,-55.1844,0.67,946,Yes,Municipal,Urban,Yes,2.0,Centro-Oeste,5,Mato Grosso,BR51,Nova Ubiratã,BR5106240,Yes
bb3d88bd-64db-397d-a766-27d657e56df2,Brazil,government,51014840,EM PRIMAVERA,-13.0197,-55.7905,1.0,490,Yes,Municipal,Rural,Yes,5.0,Centro-Oeste,5,Mato Grosso,BR51,Sorriso,BR5107925,Yes
5586481d-764c-3014-be44-55c66fa1bd05,Brazil,government,51014890,EM NOSSA SENHORA APARECIDA,-12.0134,-56.056,0.61,687,Yes,Municipal,Urban,Yes,5.0,Centro-Oeste,5,Mato Grosso,BR51,Ipiranga do Norte,BR5104526,Yes
20266095-84e0-3938-9915-d4c2e919878a,Brazil,government,51014939,EM JOAQUIM BARBOSA DOS SANTOS,-12.1396,-56.755,0.61,62,No,Municipal,Rural,Yes,5.0,Centro-Oeste,5,Mato Grosso,BR51,Itanhangá,BR5104542,Yes
d63217b6-7f1c-358b-af84-fb7651d03897,Brazil,government,51014947,EE CANDIDO PORTINARI,-12.7405,-56.5103,1.0,1557,Yes,Estadual,Urban,Yes,5.0,Centro-Oeste,5,Mato Grosso,BR51,Tapurah,BR5108006,Yes
664cb40f-77fd-362f-bc21-3f8926c0af42,Brazil,government,51014955,EM DOM AQUINO,-12.5539,-56.602,0.61,104,Yes,Municipal,Rural,Yes,5.0,Centro-Oeste,5,Mato Grosso,BR51,Tapurah,BR5108006,Yes
3adefc51-ff2c-3c87-ace6-9260d27ac410,Brazil,government,51014998,EM BASILIO BASTOS DOS SANTOS,-11.4475,-55.0487,1.0,0,,Municipal,Rural,,,Centro-Oeste,5,Mato Grosso,BR51,Cláudia,BR5103056,No
41380128-02dc-3877-b0d6-925e16ee0c99,Brazil,government,51015005,EMCATARINA CANOZO,-11.5009,-54.8887,1.0,0,,Municipal,Rural,,,Centro-Oeste,5,Mato Grosso,BR51,Cláudia,BR5103056,No
666d01c4-618d-3823-9d7e-d6ecc5345139,Brazil,government,51015013,ESCOLA MUNICIPAL DANIEL TITTON,-11.5074,-54.8816,1.0,814,Yes,Municipal,Urban,Yes,5.0,Centro-Oeste,5,Mato Grosso,BR51,Cláudia,BR5103056,Yes
8ac3b5a8-ae4d-3381-beca-d11f31d876e0,Brazil,government,51015048,ESCOLA MUNICIPAL IRACEMA,-11.4475,-55.0487,1.0,0,,Municipal,Rural,,,Centro-Oeste,5,Mato Grosso,BR51,Cláudia,BR5103056,No
3d7da6b4-af59-3a36-8fdb-74a1e250f3d1,Brazil,government,51015080,ESCOLA MUNICIPAL DE EDUCACAO BASICA MATILDE ALTENHOFEM,-11.533,-54.37,0.83,608,Yes,Municipal,Urban,Yes,5.0,Centro-Oeste,5,Mato Grosso,BR51,União do Sul,BR5108303,Yes
c6ff1fd5-b76d-33a9-9ab2-405c65f30248,Brazil,government,51015099,EE MANOEL SOARES CAMPOS,-11.4475,-55.0487,0.67,882,Yes,Estadual,Urban,Yes,5.0,Centro-Oeste,5,Mato Grosso,BR51,Cláudia,BR5103056,Yes
3908a2a5-f055-3d19-8a5d-b7c595e4e40c,Brazil,government,51015323,ESCOLA MUNICIPAL RURAL MONTE VERDE,-11.1108,-55.5906,0.67,29,No,Municipal,Rural,Yes,5.0,Centro-Oeste,5,Mato Grosso,BR51,Itaúba,BR5104559,Yes
8dfe8c22-a0a6-3f15-a20d-60d99495f7f4,Brazil,government,51015498,EE PAPA JOAO PAULO II,-11.0098,-55.2473,1.0,664,Yes,Estadual,Urban,Yes,5.0,Centro-Oeste,5,Mato Grosso,BR51,Itaúba,BR5104559,Yes
8af279e7-eb0c-36ef-8a57-737869de2fff,Brazil,government,51015510,ESCOLA MUNICIPAL EDUCANDARIO NOSSA SENHORA APARECIDA,-11.008,-55.2437,0.94,317,Yes,Municipal,Urban,Yes,5.0,Centro-Oeste,5,Mato Grosso,BR51,Itaúba,BR5104559,Yes
528d5ad9-05f3-30ab-ae43-6cd94b101f99,Brazil,government,51015528,ESCOLA MUNICIPAL BRANCA DE NEVE,-10.849,-55.1814,0.94,263,Yes,Municipal,Urban,Yes,5.0,Centro-Oeste,5,Mato Grosso,BR51,Nova Santa Helena,BR5106190,Yes
9a0951dd-9127-3517-b398-f335879c54d3,Brazil,government,51015765,EE PEDRO BIANCHINI,-11.0835,-54.5216,1.0,169,Yes,Estadual,Urban,Yes,5.0,Centro-Oeste,5,Mato Grosso,BR51,Marcelândia,BR5105580,Yes
4fb400eb-821c-3622-8ead-2af8fbeb25e3,Brazil,government,51015790,ESCOLA MUNICIPAL DE EDUCACAO DO CAMPO ANTONIO PELISSARI,-10.9203,-54.9063,0.67,52,Yes,Municipal,Rural,Yes,5.0,Centro-Oeste,5,Mato Grosso,BR51,Nova Santa Helena,BR5106190,Yes
c07a71bd-b4b1-305d-8da8-68794a247a2f,Brazil,government,51015803,ESCOLA MUNICIPAL CASTRO ALVES,-10.8857,-54.053,0.61,342,Yes,Municipal,Urban,Yes,5.0,Centro-Oeste,5,Mato Grosso,BR51,Marcelândia,BR5105580,Yes
066ec522-43b1-3d88-a254-ad0b6ce10173,Brazil,government,51015811,EPM PROF JOSE OLAVO DA SILVA GHIRALDI,-10.8857,-54.053,0.61,134,Yes,Municipal,Urban,Yes,2.0,Centro-Oeste,5,Mato Grosso,BR51,Marcelândia,BR5105580,Yes
cf4fe57c-4118-3844-aae2-5a27fcbfa7b1,Brazil,government,51015820,ESCOLA PUBLICA MUNICIPAL SANTA TEREZINHA,-10.8857,-54.053,0.61,183,Yes,Municipal,Urban,Yes,2.0,Centro-Oeste,5,Mato Grosso,BR51,Marcelândia,BR5105580,Yes
f1bcf5af-0e86-35c7-807f-5a55918a10c7,Brazil,government,51015960,EE N SENHORA APARECIDA,-11.9354,-54.903,0.61,189,Yes,Estadual,Urban,Yes,5.0,Centro-Oeste,5,Mato Grosso,BR51,Santa Carmem,BR5107248,Yes
57ca886e-e3e7-3d58-ab91-494cc34a4ba1,Brazil,government,51016001,E M E B MARIA APARECIDA AMARO DE SOUZA,-11.7117,-55.5001,0.67,866,Yes,Municipal,Urban,Yes,5.0,Centro-Oeste,5,Mato Grosso,BR51,Sinop,BR5107909,Yes
20713c6b-3ea6-3d0c-938e-35dde84d1960,Brazil,government,51016028,EE NOSSA SENHORA DA GLORIA,-11.7117,-55.5001,0.67,669,No,Estadual,Urban,Yes,5.0,Centro-Oeste,5,Mato Grosso,BR51,Sinop,BR5107909,Yes
d35b1c9c-3084-343a-bc6e-cf2808b15434,Brazil,government,51016036,CEJA BENEDITO SANTANA DA SILVA FREIRE,-11.7117,-55.5001,0.67,992,Yes,Estadual,Urban,Yes,5.0,Centro-Oeste,5,Mato Grosso,BR51,Sinop,BR5107909,Yes
9a880f77-ba30-3955-89ec-1520d1b6ae03,Brazil,government,51016052,EE SAO VICENTE DE PAULA,-11.8532,-55.4937,1.0,1519,Yes,Estadual,Urban,Yes,5.0,Centro-Oeste,5,Mato Grosso,BR51,Sinop,BR5107909,Yes
fbe9cdae-b02a-3c3c-b57e-e571c5d17093,Brazil,government,51016079,E M E B RODRIGO DAMASCENO,-11.7117,-55.5001,0.67,1114,Yes,Municipal,Urban,Yes,5.0,Centro-Oeste,5,Mato Grosso,BR51,Sinop,BR5107909,Yes
74771dff-8877-34c4-ab95-d0f61542eae4,Brazil,government,51016095,EMEB PROF LENI T BENEDETTI,-11.9383,-55.5147,1.0,450,Yes,Municipal,Urban,Yes,5.0,Centro-Oeste,5,Mato Grosso,BR51,Sinop,BR5107909,Yes
257c6b3f-f947-3687-8a59-e878218b508e,Brazil,government,51016222,EMEB SADAO WATANABE,-11.8372,-55.498,0.94,866,Yes,Municipal,Urban,Yes,5.0,Centro-Oeste,5,Mato Grosso,BR51,Sinop,BR5107909,Yes
81503b52-c2da-37bd-aac1-3e0a043eb4b5,Brazil,government,51016249,EMEB SILVANA,-11.7914,-55.4663,1.0,314,Yes,Municipal,Rural,Yes,2.0,Centro-Oeste,5,Mato Grosso,BR51,Sinop,BR5107909,Yes
e442b934-8827-339e-b3a1-4a8f7a95ea63,Brazil,government,51016257,EMEB UILIBALDO VIEIRA GOBBO,-11.8171,-55.4854,1.0,326,Yes,Municipal,Urban,Yes,5.0,Centro-Oeste,5,Mato Grosso,BR51,Sinop,BR5107909,Yes
fdd2d2d8-8970-3e21-84dd-6e3bd0f60961,Brazil,government,51016265,EMEB VEREADOR RODOLFO VALTER KUNZE,-11.8697,-55.5033,1.0,562,Yes,Municipal,Urban,Yes,5.0,Centro-Oeste,5,Mato Grosso,BR51,Sinop,BR5107909,Yes
22ca42d3-e833-3c02-9568-7e02591d91b0,Brazil,government,51016320,EE ROSA DOS VENTOS,-11.8398,-55.5172,1.0,637,Yes,Estadual,Urban,Yes,5.0,Centro-Oeste,5,Mato Grosso,BR51,Sinop,BR5107909,Yes
990b4943-07e8-339a-b42c-e26c6518f900,Brazil,government,51016397,EE ENIO PIPINO,-11.8505,-55.506,0.94,1290,Yes,Estadual,Urban,Yes,5.0,Centro-Oeste,5,Mato Grosso,BR51,Sinop,BR5107909,Yes
88e93f14-65e8-3d4e-9bf3-c408e20b5e5f,Brazil,government,51016400,EE NILZA DE OLIVEIRA PIPINO,-11.8598,-55.4998,1.0,1407,Yes,Estadual,Urban,Yes,5.0,Centro-Oeste,5,Mato Grosso,BR51,Sinop,BR5107909,Yes
5f06c90e-f713-30aa-8c5a-928b96a36dac,Brazil,government,51016419,EE OLIMPIO JOAO PISSINATI GUERRA,-11.8448,-55.4965,1.0,800,Yes,Estadual,Urban,Yes,5.0,Centro-Oeste,5,Mato Grosso,BR51,Sinop,BR5107909,Yes
a814cc61-504d-309d-b6fc-f0c32f14e1a0,Brazil,government,51016532,EM GETULIO VARGAS,-12.9076,-54.8559,1.0,103,Yes,Municipal,Rural,Yes,2.0,Centro-Oeste,5,Mato Grosso,BR51,Nova Ubiratã,BR5106240,Yes
625032a1-9659-375c-a44f-8e704dc9c6b6,Brazil,government,51016559,EUM NILZA DE OLIVEIRA PIPINO,-12.4218,-55.3458,0.67,369,Yes,Municipal,Urban,Yes,5.0,Centro-Oeste,5,Mato Grosso,BR51,Vera,BR5108501,Yes
311204b0-d86d-3c22-a27e-626dd08f1e33,Brazil,government,51016575,ESCOLA MUNICIPAL PRINCESA ISABEL,-12.376,-54.9346,0.94,432,Yes,Municipal,Urban,Yes,5.0,Centro-Oeste,5,Mato Grosso,BR51,Feliz Natal,BR5103700,Yes
3ad8225a-8e67-3bcc-adac-dbd7cf7d7862,Brazil,government,51016737,EMRMALVINA EVARISTO PESCINELLI,-12.1733,-54.2723,1.0,183,No,Municipal,Rural,Yes,5.0,Centro-Oeste,5,Mato Grosso,BR51,Feliz Natal,BR5103700,Yes
10587300-f569-3c3e-81b7-f59b9e02d4fa,Brazil,government,51016788,ESCOLA MUNICIPAL 13 DE MAIO,-13.0906,-54.7882,1.0,57,Yes,Municipal,Rural,Yes,5.0,Centro-Oeste,5,Mato Grosso,BR51,Nova Ubiratã,BR5106240,Yes
7a369d23-d024-3422-85bc-b7aeb1a79c21,Brazil,government,51016800,EE N SR DO PERPETUO SOCORRO,-12.3049,-55.3161,1.0,997,No,Estadual,Urban,Yes,5.0,Centro-Oeste,5,Mato Grosso,BR51,Vera,BR5108501,Yes
ad50b75b-abe0-378a-a278-f05f385a0c68,Brazil,government,51016842,ESCOLA MUNICIPAL PEDRO ALVARES CABRAL,-12.6273,-54.6486,1.0,62,No,Municipal,Rural,Yes,2.0,Centro-Oeste,5,Mato Grosso,BR51,Nova Ubiratã,BR5106240,Yes
bfb1f235-f489-3792-aec1-a28b52e2873e,Brazil,government,51016850,CRECHE NOSSA SENHORA APARECIDA,-14.8919,-54.8597,1.0,0,,Municipal,Urban,,,Centro-Oeste,5,Mato Grosso,BR51,Nova Brasilândia,BR5106208,Yes
69058e21-23d8-3741-ade5-396290dfd116,Brazil,government,51016885,EE PAD JOSE MARIA DO SACRAMENTO,-14.8919,-54.8597,0.67,543,Yes,Estadual,Urban,Yes,5.0,Centro-Oeste,5,Mato Grosso,BR51,Nova Brasilândia,BR5106208,Yes
9bfc4b1e-b3a2-3317-beff-3d33e3c17335,Brazil,government,51017032,EE TANCREDO DE ALMEIDA NEVES,-14.9285,-54.9742,1.0,284,Yes,Estadual,Urban,Yes,5.0,Centro-Oeste,5,Mato Grosso,BR51,Nova Brasilândia,BR5106208,Yes
02dfe917-936f-32d3-a4d3-064a0603a9ce,Brazil,government,51017156,ESCOLA MUNICIPAL NOVA FILANDIA,-14.6937,-55.2127,1.0,106,Yes,Municipal,Urban,Yes,5.0,Centro-Oeste,5,Mato Grosso,BR51,Nova Brasilândia,BR5106208,Yes
8767b134-d844-32f1-bcb7-07b6c1149684,Brazil,government,51017300,EMPG SAO SEBASTIAO II,-14.8919,-54.8597,1.0,0,,Municipal,Rural,,,Centro-Oeste,5,Mato Grosso,BR51,Nova Brasilândia,BR5106208,No
1e22a4cd-1a86-330a-82f2-c85899298435,Brazil,government,51017342,ESCOLA MUNICIPAL DE EDUCACAO INFANTIL MENINO JESUS,-13.6774,-54.1091,0.67,268,No,Municipal,Urban,Yes,2.0,Centro-Oeste,5,Mato Grosso,BR51,Paranatinga,BR5106307,Yes
e9b93e77-4fd9-37fc-8bd9-46a0093c4769,Brazil,government,51017350,ESCOLA MUNICIPAL 17 DE DEZEMBRO,-14.4348,-54.0464,1.0,228,No,Municipal,Urban,Yes,5.0,Centro-Oeste,5,Mato Grosso,BR51,Paranatinga,BR5106307,Yes
836fa4ee-f082-3225-b83b-89ff95770fb0,Brazil,government,51017440,ESCOLA MUNICIPAL DO CAMPO EUZEBIO DE QUEIROZ,-13.6774,-54.1091,0.67,143,No,Municipal,Rural,Yes,5.0,Centro-Oeste,5,Mato Grosso,BR51,Paranatinga,BR5106307,Yes
90ef68d5-0add-377d-bbb5-026cdff0c2d7,Brazil,government,51017458,ESCOLA MUNICIPAL INDIGENA NOVO PROGRESSO,-13.6774,-54.1091,0.67,27,No,Municipal,Rural,Yes,5.0,Centro-Oeste,5,Mato Grosso,BR51,Paranatinga,BR5106307,Yes
5bf4ed30-802e-3490-b6f0-b83bb197029b,Brazil,government,51017466,ESCOLA MUNICIPAL INDIGENA CEREMECE CEREPSE,-13.6774,-54.1091,0.67,32,No,Municipal,Rural,Yes,5.0,Centro-Oeste,5,Mato Grosso,BR51,Paranatinga,BR5106307,Yes
7a1e175d-8bb0-3c46-a626-c9c3d559dd6b,Brazil,government,51017482,ESCOLA MUNICIPAL INDIGENA OTAVIO KUREWE,-13.6774,-54.1091,0.67,19,No,Municipal,Rural,No,0.0,Centro-Oeste,5,Mato Grosso,BR51,Paranatinga,BR5106307,Yes
f1719253-a4b8-3124-a9f2-b5f89032b3fe,Brazil,government,51017520,ESCOLA MUNICIPAL INDIGENA JOSE PIRES ULUKO,-13.6774,-54.1091,0.67,97,No,Municipal,Rural,Yes,5.0,Centro-Oeste,5,Mato Grosso,BR51,Paranatinga,BR5106307,Yes
dbfb1d10-4ab7-3e5a-8876-faf8d809c2cd,Brazil,government,51017547,ESCOLA MUNICIPAL DO CAMPO ALCIDES VISONI,-13.2815,-54.2531,1.0,277,Yes,Municipal,Rural,Yes,2.0,Centro-Oeste,5,Mato Grosso,BR51,Paranatinga,BR5106307,Yes
d0cd6229-cfd3-310b-8a6e-e5cc771eae31,Brazil,government,51017580,ESCOLA MUNICIPAL RUI BARBOSA,-13.6774,-54.1091,0.67,361,No,Municipal,Urban,Yes,5.0,Centro-Oeste,5,Mato Grosso,BR51,Paranatinga,BR5106307,Yes
8dea8514-10ea-317b-b30c-80ca5d09387e,Brazil,government,51017652,EE APOLONIO BOURET DE MELO,-13.6774,-54.1091,0.67,184,Yes,Estadual,Urban,Yes,5.0,Centro-Oeste,5,Mato Grosso,BR51,Paranatinga,BR5106307,Yes
2cb99535-0fbb-3c47-a579-547e61450861,Brazil,government,51017660,EE OSVALDO CANDIDO PEREIRA,-13.6774,-54.1091,0.67,1502,Yes,Estadual,Urban,Yes,5.0,Centro-Oeste,5,Mato Grosso,BR51,Paranatinga,BR5106307,Yes
f1be2de7-3428-3f54-8a27-85e6d3a03702,Brazil,government,51017687,EE 29 DE JUNHO,-14.4421,-54.0565,1.0,659,Yes,Estadual,Urban,Yes,5.0,Centro-Oeste,5,Mato Grosso,BR51,Paranatinga,BR5106307,Yes
5455906c-8267-38a1-af23-56b9f2ed769d,Brazil,government,51017695,ESCOLA MUNICIPAL 03 DE MAIO,-13.6774,-54.1091,0.67,290,Yes,Municipal,Urban,Yes,5.0,Centro-Oeste,5,Mato Grosso,BR51,Paranatinga,BR5106307,Yes
6493ec7e-c2f2-3bc4-b1f0-70aac9b673eb,Brazil,government,51017733,ESCOLA MUNICIPAL VISTA ALEGRE,-14.419,-54.0487,0.94,314,No,Municipal,Urban,Yes,5.0,Centro-Oeste,5,Mato Grosso,BR51,Paranatinga,BR5106307,Yes
ac1d6ab7-a1a1-3477-a6cf-047f04409afe,Brazil,government,51017750,ESCOLA MUNICIPAL CHAPEUZINHO VERMELHO,-14.4414,-54.0565,1.0,405,Yes,Municipal,Urban,Yes,5.0,Centro-Oeste,5,Mato Grosso,BR51,Paranatinga,BR5106307,Yes
a3dc1392-48ac-3d7e-8500-4d93e8f6072c,Brazil,government,51017890,EMPG FLORADA DA SERRA,-14.5907,-54.6723,1.0,0,,Municipal,Rural,,,Centro-Oeste,5,Mato Grosso,BR51,Planalto da Serra,BR5106455,No
c30fa798-ff82-3c91-ae9a-b80f1224e6a8,Brazil,government,51018241,EMEB XINGU,-13.5422,-53.1391,1.0,55,Yes,Municipal,Rural,Yes,5.0,Centro-Oeste,5,Mato Grosso,BR51,Gaúcha do Norte,BR5103858,Yes
a0f920d3-55a0-3786-b36c-b3f453771c86,Brazil,government,51018268,EMEB BEM ME QUER,-13.1803,-53.2578,1.0,499,No,Municipal,Urban,Yes,2.0,Centro-Oeste,5,Mato Grosso,BR51,Gaúcha do Norte,BR5103858,Yes
0056b786-73b2-3c45-b027-9919688e5ac2,Brazil,government,51018373,EE ALVARINA ALVES DE FREITAS,-14.6639,-54.7736,1.0,345,Yes,Estadual,Urban,Yes,5.0,Centro-Oeste,5,Mato Grosso,BR51,Planalto da Serra,BR5106455,Yes
71bdd2c0-6f60-37f1-ad1a-e7979d52c1c2,Brazil,government,51018470,E MUL DE ED INF E FUND SANTA MARTA,-12.2166,-51.7399,0.67,645,Yes,Municipal,Urban,Yes,5.0,Centro-Oeste,5,Mato Grosso,BR51,Bom Jesus do Araguaia,BR5101852,Yes
b1f60122-56fb-375c-9b4c-885c42284319,Brazil,government,51018543,ESCOLA MUNICIPAL ANA RIBEIRO DE SOUSA,-12.022,-51.3618,0.61,372,Yes,Municipal,Urban,Yes,5.0,Centro-Oeste,5,Mato Grosso,BR51,Serra Nova Dourada,BR5107883,Yes
fb6c6dc0-084c-3d60-a7a0-8e723ea678f6,Brazil,government,51018551,EE JOAO REZENDE DE AZEVEDO,-11.8102,-51.7492,0.67,503,Yes,Estadual,Urban,Yes,5.0,Centro-Oeste,5,Mato Grosso,BR51,Alto Boa Vista,BR5100359,Yes
c41b175a-fd15-38d9-870d-9080778fc45c,Brazil,government,51018608,ESCOLA MUNICIPAL PRIMAVERA,-11.2003,-51.8228,1.0,0,,Municipal,Rural,,,Centro-Oeste,5,Mato Grosso,BR51,Canabrava do Norte,BR5102694,No
3e21f0db-d7c1-394a-921e-6f5992ac7fba,Brazil,government,51018640,E M CANAA,-11.2003,-51.8228,0.67,593,Yes,Municipal,Urban,Yes,5.0,Centro-Oeste,5,Mato Grosso,BR51,Canabrava do Norte,BR5102694,Yes
3c20d7f5-0439-345e-b2f8-d1bf2b9b7693,Brazil,government,51018667,EE ELIAS BENTO,-11.2003,-51.8228,0.67,474,Yes,Estadual,Urban,Yes,5.0,Centro-Oeste,5,Mato Grosso,BR51,Canabrava do Norte,BR5102694,Yes
4f6e01aa-79f3-32b6-91b0-cae4b23bcc78,Brazil,government,51018900,EE 29 DE JULHO,-10.4918,-51.7673,0.67,989,Yes,Estadual,Urban,Yes,5.0,Centro-Oeste,5,Mato Grosso,BR51,Confresa,BR5103353,Yes
ea97a301-c986-303d-a7a2-b214a38f4b24,Brazil,government,51018934,ESCOLA MUNICIPAL TANCREDO NEVES,-10.6453,-51.5725,0.67,49,Yes,Municipal,Rural,No,0.0,Centro-Oeste,5,Mato Grosso,BR51,Confresa,BR5103353,No
13f871de-1371-3894-b03b-50a137e3339a,Brazil,government,51018942,EMVER VALDEMIRO NUNES DE ARAUJO,-10.6453,-51.5725,0.67,224,Yes,Municipal,Rural,Yes,5.0,Centro-Oeste,5,Mato Grosso,BR51,Confresa,BR5103353,Yes
2d38b315-b35a-305d-915b-bb21adb2e301,Brazil,government,51019060,ESCOLA MUNICIPAL JACARE VALENTE,-10.6453,-51.5725,0.67,245,No,Municipal,Rural,Yes,2.0,Centro-Oeste,5,Mato Grosso,BR51,Confresa,BR5103353,Yes
c4cbb9fe-f3e7-352e-9778-8a334e3ee66d,Brazil,government,51019264,ESC MUN VILA TAPIRAGUAIA,-10.6452,-51.5725,0.67,565,Yes,Municipal,Urban,Yes,5.0,Centro-Oeste,5,Mato Grosso,BR51,Confresa,BR5103353,Yes
6bebfa80-0e1a-36b3-a541-a0890f7b641a,Brazil,government,51019299,EE JUSCELINO KUBISTCHEK,-11.0141,-50.943,0.61,109,Yes,Estadual,Urban,Yes,5.0,Centro-Oeste,5,Mato Grosso,BR51,Luciara,BR5105309,Yes
61f19864-e5e4-3875-886d-181a5ec88233,Brazil,government,51019302,EE HUMBERTO CASTELO BRANCO,-11.2268,-50.6685,1.0,203,Yes,Estadual,Urban,Yes,5.0,Centro-Oeste,5,Mato Grosso,BR51,Luciara,BR5105309,Yes
6afa4c1d-1c57-3740-b8ee-c74ed813eb7c,Brazil,government,51019388,EMRPG SAO BENTO,-11.0141,-50.943,0.61,32,No,Municipal,Rural,Yes,2.0,Centro-Oeste,5,Mato Grosso,BR51,Luciara,BR5105309,Yes
0037cf3b-8f5c-3e63-8703-c966edd765e7,Brazil,government,51019426,EE GILVAN DE SOUZA,-10.8247,-51.714,0.61,430,Yes,Estadual,Urban,Yes,5.0,Centro-Oeste,5,Mato Grosso,BR51,Porto Alegre do Norte,BR5106778,Yes
f79053ac-04a2-3e1f-a53f-9640c35632dd,Brazil,government,51019469,E M BOA ESPERANCA,-10.8739,-51.6377,1.0,350,Yes,Municipal,Urban,Yes,5.0,Centro-Oeste,5,Mato Grosso,BR51,Porto Alegre do Norte,BR5106778,Yes
15b05fb6-3a7c-3e8d-abcc-dbe69bf296f5,Brazil,government,51019507,EMPG ESPIGAO I,-10.8247,-51.714,0.94,0,,Municipal,Rural,,,Centro-Oeste,5,Mato Grosso,BR51,Porto Alegre do Norte,BR5106778,Yes
c7d3effe-0365-377f-861f-828d10d1e7ed,Brazil,government,51019574,EMPG MUTUM,-10.8247,-51.714,0.94,0,,Municipal,Rural,,,Centro-Oeste,5,Mato Grosso,BR51,Porto Alegre do Norte,BR5106778,Yes
ff8d9d2a-7169-31bb-8e0c-b92bf8e6dc50,Brazil,government,51019647,EM SAO GERALDO,-10.8763,-51.6424,1.0,265,No,Municipal,Urban,Yes,5.0,Centro-Oeste,5,Mato Grosso,BR51,Porto Alegre do Norte,BR5106778,Yes
e4e37feb-f5ed-3701-9d74-9a738b79019f,Brazil,government,51019671,EMPG TRES MARCOS,-10.8247,-51.714,0.94,0,,Municipal,Rural,,,Centro-Oeste,5,Mato Grosso,BR51,Porto Alegre do Norte,BR5106778,Yes
43c0906b-d891-330c-9535-1f15ebb274cf,Brazil,government,51019698,EM SETOR VALDECY,-10.8515,-52.0207,1.0,58,No,Municipal,Rural,Yes,5.0,Centro-Oeste,5,Mato Grosso,BR51,Porto Alegre do Norte,BR5106778,Yes
2d2fe334-0072-3066-9553-cb8db8d02098,Brazil,government,51019728,EE TAPIRAPE,-10.8773,-51.6373,1.0,377,No,Estadual,Urban,Yes,5.0,Centro-Oeste,5,Mato Grosso,BR51,Porto Alegre do Norte,BR5106778,Yes
919cc201-c10e-3f0f-91c8-d82506cbbd44,Brazil,government,51019744,EE ALEXANDRE QUIRINO SOUZA,-10.8819,-51.6351,1.0,575,Yes,Estadual,Urban,Yes,5.0,Centro-Oeste,5,Mato Grosso,BR51,Porto Alegre do Norte,BR5106778,Yes
491bce23-eb2b-3556-938e-89da5372d17f,Brazil,government,51019752,EE 13 DE MAIO,-10.8247,-51.714,0.61,328,Yes,Estadual,Urban,Yes,5.0,Centro-Oeste,5,Mato Grosso,BR51,Porto Alegre do Norte,BR5106778,Yes
c55275d5-e7d5-3934-aa36-d42920c0af41,Brazil,government,51019760,E M NOVA FLORESTA,-10.7854,-51.9893,1.0,130,No,Municipal,Rural,Yes,5.0,Centro-Oeste,5,Mato Grosso,BR51,Porto Alegre do Norte,BR5106778,Yes
c2a1a0ea-7c8b-31c7-9b10-0ba3e0d15369,Brazil,government,51019795,ESCOLA MUNICIPAL SAO JOAO,-11.2003,-51.8228,1.0,0,,Municipal,Urban,,,Centro-Oeste,5,Mato Grosso,BR51,Canabrava do Norte,BR5102694,Yes
ba4cc5fb-abcd-3c52-80e4-a0f3af92f12d,Brazil,government,51019817,EM PROF,-12.8738,-51.5685,0.67,364,Yes,Municipal,Urban,Yes,5.0,Centro-Oeste,5,Mato Grosso,BR51,Ribeirão Cascalheira,BR5107180,Yes
20aa6eed-6b97-37e7-a109-3dc512c2c36c,Brazil,government,51019825,EM DONA ANTONIETA MELGES CAMARGO,-12.8738,-51.5685,0.67,337,Yes,Municipal,Urban,Yes,5.0,Centro-Oeste,5,Mato Grosso,BR51,Ribeirão Cascalheira,BR5107180,Yes
7ce1feb6-f2af-3196-a15f-4e90f1e42e0b,Brazil,government,51020017,EMC - JOAQUIM VIEIRA BARROS,-12.9132,-51.6805,1.0,56,No,Municipal,Rural,Yes,2.0,Centro-Oeste,5,Mato Grosso,BR51,Ribeirão Cascalheira,BR5107180,Yes
a1dc28e1-28fc-36b1-997e-2767bf6fc26d,Brazil,government,51020025,EMCEF UNIAO,-12.8738,-51.5685,1.0,0,,Municipal,Rural,,,Centro-Oeste,5,Mato Grosso,BR51,Ribeirão Cascalheira,BR5107180,No
c9da100f-02df-34ec-9d38-e132862afef3,Brazil,government,51020092,EM DO CAMPO DE EF PIABANHA I,-12.8738,-51.5685,1.0,0,,Municipal,Rural,,,Centro-Oeste,5,Mato Grosso,BR51,Ribeirão Cascalheira,BR5107180,No
c9123426-a13c-336f-9da7-8b8f905b1a6d,Brazil,government,51020190,EMC TANCREDO NEVES,-12.8173,-51.025,0.94,16,No,Municipal,Rural,Yes,2.0,Centro-Oeste,5,Mato Grosso,BR51,Ribeirão Cascalheira,BR5107180,Yes
7ce18dda-976c-3349-ac24-17ad977a0f9f,Brazil,government,51020220,EE CEL ONDINO R LIMA,-12.9313,-51.8237,1.0,893,Yes,Estadual,Urban,Yes,5.0,Centro-Oeste,5,Mato Grosso,BR51,Ribeirão Cascalheira,BR5107180,Yes
4b19cd4a-3ec5-3ab1-860b-e20bef4ab43b,Brazil,government,51020246,ESCOLA MUNICIPAL MARIA MARLENE DE MORAIS,-10.8037,-52.7323,1.0,427,Yes,Municipal,Urban,Yes,5.0,Centro-Oeste,5,Mato Grosso,BR51,São José do Xingu,BR5107354,Yes
43a6820a-63c5-3486-9700-0a178b0c6eef,Brazil,government,51020254,EE ANTONIO GOMES PRIMO,-10.7449,-52.7065,0.67,484,No,Estadual,Urban,Yes,5.0,Centro-Oeste,5,Mato Grosso,BR51,São José do Xingu,BR5107354,Yes
3e86ddeb-e759-3878-95fc-2493a6081fa3,Brazil,government,51020262,EM RICIERI BERTE,-10.0653,-52.5436,0.67,380,No,Municipal,Urban,Yes,2.0,Centro-Oeste,5,Mato Grosso,BR51,Santa Cruz do Xingu,BR5107743,Yes
e7052942-2a75-3b13-b0df-034b7f4439b1,Brazil,government,51020270,EE MARTINIANO CARLOS PEREIRA,-10.4675,-50.5094,1.0,354,Yes,Estadual,Urban,Yes,5.0,Centro-Oeste,5,Mato Grosso,BR51,Santa Terezinha,BR5107776,Yes
7961d070-433d-367b-ae25-5ac840943c8d,Brazil,government,51020335,EMPG NOVA ESPERANCA I,-10.3335,-50.7928,1.0,0,,Municipal,Rural,,,Centro-Oeste,5,Mato Grosso,BR51,Santa Terezinha,BR5107776,No
2b14fbf8-7943-34f1-9aee-a99bc435d3f3,Brazil,government,51020378,EE INDIGENA TAPIRAPE,-10.3335,-50.7928,0.67,82,Yes,Estadual,Rural,Yes,5.0,Centro-Oeste,5,Mato Grosso,BR51,Santa Terezinha,BR5107776,Yes
3e516fd0-60e9-32d2-b571-0621c09bc6df,Brazil,government,51020424,EMPG ANTONIO ROSA,-10.3335,-50.7928,0.67,35,Yes,Municipal,Rural,Yes,5.0,Centro-Oeste,5,Mato Grosso,BR51,Santa Terezinha,BR5107776,Yes
7bc78069-77a8-3270-a43d-aa52c4b2498c,Brazil,government,51020432,EMPG XANADU,-10.3335,-50.7928,1.0,0,,Municipal,Rural,,,Centro-Oeste,5,Mato Grosso,BR51,Santa Terezinha,BR5107776,No
8f1b72fc-c607-3c50-805f-80cdb6b12e35,Brazil,government,51020440,EMPG DO CRISOSTIMO,-10.3335,-50.7928,1.0,0,,Municipal,Rural,,,Centro-Oeste,5,Mato Grosso,BR51,Santa Terezinha,BR5107776,No
d56ac40f-81c3-3377-b6fd-cf0759dc64e9,Brazil,government,51020459,EE SANTA TEREZINHA,-10.4759,-50.5141,1.0,447,Yes,Estadual,Urban,Yes,5.0,Centro-Oeste,5,Mato Grosso,BR51,Santa Terezinha,BR5107776,Yes
5adefacb-6210-392e-90df-af0b13b948bd,Brazil,government,51020521,EMPG LAGO GRANDE,-10.3335,-50.7928,0.67,19,Yes,Municipal,Rural,Yes,2.0,Centro-Oeste,5,Mato Grosso,BR51,Santa Terezinha,BR5107776,Yes
2d5d5bdb-1915-3885-b451-2bd314c5bb7e,Brazil,government,51020548,ESCOLA MUNICIPAL 1 GRAU PRE ESCOLAR,-10.3335,-50.7928,0.67,186,No,Municipal,Urban,No,0.0,Centro-Oeste,5,Mato Grosso,BR51,Santa Terezinha,BR5107776,No
8546ea77-6154-3443-bd1c-e6510a2d2f8a,Brazil,government,51020572,EE PRES TANCREDO DE A NEVES,-11.5819,-51.1811,0.67,414,Yes,Estadual,Urban,Yes,5.0,Centro-Oeste,5,Mato Grosso,BR51,São Félix do Araguaia,BR5107859,Yes
4d67bf61-44b4-387c-9390-214ca08c2dd2,Brazil,government,51020777,EMEB NOVA SUIA,-11.5819,-51.1811,0.67,64,No,Municipal,Rural,Yes,5.0,Centro-Oeste,5,Mato Grosso,BR51,São Félix do Araguaia,BR5107859,Yes
b26a1846-2311-30a9-a172-82d6655dabd6,Brazil,government,51020840,EMEBC PONTINOPOLIS,-11.5819,-51.1811,0.67,177,No,Municipal,Rural,Yes,5.0,Centro-Oeste,5,Mato Grosso,BR51,São Félix do Araguaia,BR5107859,Yes
537d410a-4a00-3cd1-85fc-abb54693ff37,Brazil,government,51020874,EMEB SAO SEBASTIAO,-11.5819,-51.1811,0.67,158,Yes,Municipal,Rural,Yes,5.0,Centro-Oeste,5,Mato Grosso,BR51,São Félix do Araguaia,BR5107859,Yes
a1950027-10e4-3270-9d10-36b4ebbdb0cd,Brazil,government,51020882,EE PROFESSORA HILDA ROCHA SOUZA,-11.6162,-50.6677,1.0,176,Yes,Estadual,Urban,Yes,5.0,Centro-Oeste,5,Mato Grosso,BR51,São Félix do Araguaia,BR5107859,Yes
e9ec80fd-dfa1-3f23-944e-98b0a42c2b6c,Brazil,government,51020912,EESPSG JOSE ATENEU LUZ,-11.5819,-51.1811,1.0,0,,Estadual,Urban,,,Centro-Oeste,5,Mato Grosso,BR51,São Félix do Araguaia,BR5107859,Yes
c257f489-f0d4-362e-97d3-11e6416d5a6d,Brazil,government,51020980,EM SANTANINHA,-9.7724,-51.3603,1.0,64,No,Municipal,Rural,Yes,2.0,Centro-Oeste,5,Mato Grosso,BR51,Vila Rica,BR5108600,Yes
aef99f1b-8d88-3282-8835-b584bddf1864,Brazil,government,51021072,E M N S APARECIDA,-10.0139,-50.9842,1.0,189,No,Municipal,Rural,Yes,2.0,Centro-Oeste,5,Mato Grosso,BR51,Vila Rica,BR5108600,Yes
224a986c-0dfa-3cab-af4c-8b641a02d809,Brazil,government,51021080,E M PROF,-10.0125,-51.1206,1.0,652,Yes,Municipal,Urban,Yes,5.0,Centro-Oeste,5,Mato Grosso,BR51,Vila Rica,BR5108600,Yes
387ef8cd-7935-3cc9-8c06-7cd20f824b70,Brazil,government,51021099,EE MARIA ESTHER PERES,-9.9805,-51.4047,0.67,1065,No,Estadual,Urban,Yes,5.0,Centro-Oeste,5,Mato Grosso,BR51,Vila Rica,BR5108600,Yes
d3ece438-e0b0-33a8-a334-6af5ad2148f8,Brazil,government,51021161,EM NAZARE,-9.9805,-51.4047,0.67,76,Yes,Municipal,Rural,Yes,2.0,Centro-Oeste,5,Mato Grosso,BR51,Vila Rica,BR5108600,Yes
b8e67235-ee5a-3c27-8f53-e7ec13834a13,Brazil,government,51021218,EM NOVA LISBOA,-9.9805,-51.4047,0.67,44,No,Municipal,Rural,Yes,2.0,Centro-Oeste,5,Mato Grosso,BR51,Vila Rica,BR5108600,Yes
2b9a6aab-00dc-369c-9154-b07d36ca9655,Brazil,government,51021277,EM PROCOPIO FARIA,-9.9805,-51.4047,0.67,113,Yes,Municipal,Rural,Yes,2.0,Centro-Oeste,5,Mato Grosso,BR51,Vila Rica,BR5108600,Yes
ec357dd9-e931-3406-9051-67b4a064ce7c,Brazil,government,51021340,ESCOLA MUNICIPAL VILA NOVA,-10.0159,-51.1072,1.0,260,No,Municipal,Urban,Yes,2.0,Centro-Oeste,5,Mato Grosso,BR51,Vila Rica,BR5108600,Yes
1111934b-317c-3786-9941-5fd975f82a81,Brazil,government,51021374,EM SAGRADO CORACAO DE JESUS,-9.9805,-51.4047,0.67,105,No,Municipal,Rural,Yes,2.0,Centro-Oeste,5,Mato Grosso,BR51,Vila Rica,BR5108600,Yes
08891b89-61ad-3e5e-aaed-0cd067be879f,Brazil,government,51021412,ESCOLA MUNICIPAL RUI RAMOS,-10.013,-51.112,0.89,195,Yes,Municipal,Rural,Yes,2.0,Centro-Oeste,5,Mato Grosso,BR51,Vila Rica,BR5108600,Yes
9557d8d4-f74d-3f40-8cfc-6435eb24d281,Brazil,government,51021498,EMI BABACU,-14.0421,-52.2135,0.67,49,No,Municipal,Rural,Yes,5.0,Centro-Oeste,5,Mato Grosso,BR51,Água Boa,BR5100201,Yes
4aa19005-8640-3c47-9acc-c0ea1a29cfe8,Brazil,government,51021501,ESCOLA MUNICIPAL INDIGENA BURITI,-14.1558,-51.8894,0.67,13,No,Municipal,Rural,No,0.0,Centro-Oeste,5,Mato Grosso,BR51,Nova Nazaré,BR5106174,No
5a0781cb-4ed7-33f7-9165-7404768f32e1,Brazil,government,51021510,ESCOLA MUNICIPAL DE ENSINO BASICO INDIGENA CACHOEIRA,-14.1558,-51.8894,0.67,167,No,Municipal,Rural,No,0.0,Centro-Oeste,5,Mato Grosso,BR51,Nova Nazaré,BR5106174,No
b1df5925-78e2-3d1e-a4ae-f3760cfb80a3,Brazil,government,51021528,ESCOLA MUNICIPAL INDIGENA DOIS GALHOS,-14.1558,-51.8894,0.67,29,No,Municipal,Rural,No,0.0,Centro-Oeste,5,Mato Grosso,BR51,Nova Nazaré,BR5106174,No
3501d1d8-45ee-383d-ba55-ea0cd0332008,Brazil,government,51021536,ESCOLA MUNICIPAL INDIGENA LAGOA GRANDE,-14.1558,-51.8894,0.67,22,No,Municipal,Rural,No,0.0,Centro-Oeste,5,Mato Grosso,BR51,Nova Nazaré,BR5106174,No
f30fc4a1-649a-3cc0-aa94-f1655c761373,Brazil,government,51021544,ESCOLA MUNICIPAL INDIGENA MUTUM,-14.1558,-51.8894,0.67,15,No,Municipal,Rural,No,0.0,Centro-Oeste,5,Mato Grosso,BR51,Nova Nazaré,BR5106174,No
2ecb2a8d-1f8d-3832-94a2-11449139bfc2,Brazil,government,51021552,ESCOLA MUNICIPAL INDIGENA TATARIQUARA,-14.1558,-51.8894,0.67,7,No,Municipal,Rural,No,0.0,Centro-Oeste,5,Mato Grosso,BR51,Nova Nazaré,BR5106174,No
787cbab5-e20e-3505-a9a0-085bf51cba03,Brazil,government,51021560,ESCOLA MUNICIPAL DE ENSINO BASICO INDIGENA TRITOPA,-14.1558,-51.8894,0.67,98,No,Municipal,Rural,No,0.0,Centro-Oeste,5,Mato Grosso,BR51,Nova Nazaré,BR5106174,No
998eb1e1-42e1-3378-bf29-cb7e169f4ad9,Brazil,government,51021609,EM APOSTOLO PAULO,-14.0421,-52.2135,0.67,72,Yes,Municipal,Rural,Yes,2.0,Centro-Oeste,5,Mato Grosso,BR51,Água Boa,BR5100201,Yes
2281a2ab-d299-3c4e-bc57-fd9b59672a94,Brazil,government,51021617,EM PROF,-14.0421,-52.2135,0.67,49,Yes,Municipal,Rural,Yes,5.0,Centro-Oeste,5,Mato Grosso,BR51,Água Boa,BR5100201,Yes
152bd262-d334-39f8-b8d8-60a358e029e4,Brazil,government,51021633,EM BOM PRINCIPIO,-14.0421,-52.2135,0.67,44,Yes,Municipal,Rural,Yes,2.0,Centro-Oeste,5,Mato Grosso,BR51,Água Boa,BR5100201,Yes
2fab665d-d912-3d79-8cfe-eb690d695994,Brazil,government,51021706,EM GUARUJA,-14.0421,-52.2135,0.67,578,Yes,Municipal,Urban,Yes,5.0,Centro-Oeste,5,Mato Grosso,BR51,Água Boa,BR5100201,Yes
be9aaf7b-eb51-3144-99a9-063eecbc726f,Brazil,government,51021862,ESCOLA MUNICIPAL NOVA NAZARE,-13.9901,-51.7976,1.0,323,Yes,Municipal,Urban,Yes,5.0,Centro-Oeste,5,Mato Grosso,BR51,Nova Nazaré,BR5106174,Yes
91e51cee-f8e9-3f56-a8e3-71b23accad8c,Brazil,government,51021960,EE ANTONIO GROHS,-14.0421,-52.2135,0.67,1120,No,Estadual,Urban,Yes,5.0,Centro-Oeste,5,Mato Grosso,BR51,Água Boa,BR5100201,Yes
6bb1cf41-43e6-3e49-a940-081a23e68407,Brazil,government,51021978,EE 9 DE JULHO,-14.0421,-52.2135,0.67,1181,No,Estadual,Urban,Yes,5.0,Centro-Oeste,5,Mato Grosso,BR51,Água Boa,BR5100201,Yes
663d609d-19d4-34b2-8012-ddb96e8b5aac,Brazil,government,51022036,ESCOLA MUNICIPAL INDIGENA BENEDITO LOASO,-14.5688,-53.0768,0.67,33,No,Municipal,Rural,No,0.0,Centro-Oeste,5,Mato Grosso,BR51,Campinápolis,BR5102603,No
09ce71ee-c485-39b9-8899-f322e253cd49,Brazil,government,51022133,ESCOLA MUNICIPAL INDIGENA DOM BOSCO,-14.5688,-53.0768,0.67,57,No,Municipal,Rural,No,0.0,Centro-Oeste,5,Mato Grosso,BR51,Campinápolis,BR5102603,No
609da4f4-3292-3556-8abe-1bbedce04097,Brazil,government,51022168,ESCOLA MUNICIPAL INDIGENA ALDEINHAS,-14.5688,-53.0768,0.67,76,No,Municipal,Rural,No,0.0,Centro-Oeste,5,Mato Grosso,BR51,Campinápolis,BR5102603,No
e9a15961-280d-34ad-b33d-15608dd1e5ae,Brazil,government,51022192,ESCOLA MUNICIPAL INDIGENA IMACULADA CONCEICAO,-14.5688,-53.0768,0.67,226,Yes,Municipal,Rural,Yes,5.0,Centro-Oeste,5,Mato Grosso,BR51,Campinápolis,BR5102603,No
c2396a40-2a6e-379f-a372-fbd4061c275d,Brazil,government,51022206,ESCOLA MUNICIPAL INDIGENA LAGOA ENCANTADA,-14.5688,-53.0768,0.67,59,No,Municipal,Rural,No,0.0,Centro-Oeste,5,Mato Grosso,BR51,Campinápolis,BR5102603,No
32b2d0ca-80a9-325e-8a51-4590bdd6a72f,Brazil,government,51022214,EE INDIGENA WA OMORA,-14.5688,-53.0768,0.67,100,No,Estadual,Rural,Yes,2.0,Centro-Oeste,5,Mato Grosso,BR51,Campinápolis,BR5102603,Yes
43418cb8-b6ab-3646-abf3-f33aa0b72871,Brazil,government,51022222,ESCOLA MUNICIPAL INDIGENA SAO CRISTOVAO,-14.5688,-53.0768,0.67,35,No,Municipal,Rural,No,0.0,Centro-Oeste,5,Mato Grosso,BR51,Campinápolis,BR5102603,No
d6b9ba35-f6f8-3581-8175-2998d89e505c,Brazil,government,51022230,ESCOLA MUNICIPAL INDIGENA SAO DOMINGOS SAVIO,-14.5688,-53.0768,0.67,56,No,Municipal,Rural,Yes,2.0,Centro-Oeste,5,Mato Grosso,BR51,Campinápolis,BR5102603,Yes
da88474e-33cd-34da-86f6-7c883d2deb9d,Brazil,government,51022249,EE INDIGENA DE EDUCACAO BASICA BUTSE WAWE,-14.5688,-53.0768,0.67,319,No,Estadual,Rural,Yes,5.0,Centro-Oeste,5,Mato Grosso,BR51,Campinápolis,BR5102603,No
269e47a1-83d1-3e96-87fc-78dfd3c2527b,Brazil,government,51022257,ESCOLA MUNICIPAL INDIGENA SAO JORGE,-14.5688,-53.0768,0.67,46,No,Municipal,Rural,No,0.0,Centro-Oeste,5,Mato Grosso,BR51,Campinápolis,BR5102603,Yes
fb6a6969-a8c2-370e-9470-315beaeeeb19,Brazil,government,51022265,ESCOLA MUNICIPAL INDIGENA SAO PAULO,-14.5688,-53.0768,0.67,86,No,Municipal,Rural,No,0.0,Centro-Oeste,5,Mato Grosso,BR51,Campinápolis,BR5102603,No
91a32604-de0e-36fb-8c9e-9beb7c1b919f,Brazil,government,51022273,EE INDIGENA DE EDUCACAO BASICA XAVANTE,-14.5688,-53.0768,0.67,126,No,Estadual,Rural,No,0.0,Centro-Oeste,5,Mato Grosso,BR51,Campinápolis,BR5102603,No
cf0700f7-46e4-380a-91b4-4ea8249ea91a,Brazil,government,51022397,ESCOLA MUNICIPAL SAO JOSE DO COUTO,-13.8025,-53.0827,1.0,182,No,Municipal,Rural,Yes,2.0,Centro-Oeste,5,Mato Grosso,BR51,Campinápolis,BR5102603,Yes
98a24590-0dd7-3892-9d4a-f1c9596437b4,Brazil,government,51022486,EE COUTO MAGALHAES,-14.5688,-53.0768,0.67,875,Yes,Estadual,Urban,Yes,5.0,Centro-Oeste,5,Mato Grosso,BR51,Campinápolis,BR5102603,Yes
3bccee94-1be7-35f3-be5d-09e76a3de0b3,Brazil,government,51022494,EM CENTRO EDUC CARINHO TERNURA,-14.5688,-53.0768,0.67,472,Yes,Municipal,Urban,Yes,5.0,Centro-Oeste,5,Mato Grosso,BR51,Campinápolis,BR5102603,Yes
96b1caaa-fdf0-3175-8c79-495a4078606f,Brazil,government,51022524,EE NORBERTO SCHWANTES,-13.5617,-52.2628,1.0,926,Yes,Estadual,Urban,Yes,2.0,Centro-Oeste,5,Mato Grosso,BR51,Canarana,BR5102702,Yes
5e1ebaed-d84f-31d0-809a-f60624a6bd8c,Brazil,government,51022567,EMEI AGUA BRANCA,-13.7371,-51.9516,1.0,84,No,Municipal,Rural,Yes,5.0,Centro-Oeste,5,Mato Grosso,BR51,Canarana,BR5102702,Yes
e0830cde-51fc-3064-8c11-41e38056e38e,Brazil,government,51022621,EMEB ELIDIO CORBARI,-13.4993,-52.4554,1.0,115,Yes,Municipal,Rural,Yes,2.0,Centro-Oeste,5,Mato Grosso,BR51,Canarana,BR5102702,Yes
ab4c175b-45a9-36d5-9906-a43d4321066a,Brazil,government,51022648,EMEB MONTEIRO LOBATO,-13.5518,-52.279,0.94,241,No,Municipal,Urban,Yes,5.0,Centro-Oeste,5,Mato Grosso,BR51,Canarana,BR5102702,Yes
910c21a6-0773-3da0-9ea3-4e6f4ef3c655,Brazil,government,51022656,EMEB NOVA ERA,-13.5461,-52.2655,1.0,235,No,Municipal,Urban,Yes,5.0,Centro-Oeste,5,Mato Grosso,BR51,Canarana,BR5102702,Yes
e736e7dd-ebf3-3381-82c6-41f45faaacea,Brazil,government,51022664,EMI PIMENTEL BARBOSA,-13.3164,-51.68,0.89,160,No,Municipal,Rural,Yes,5.0,Centro-Oeste,5,Mato Grosso,BR51,Ribeirão Cascalheira,BR5107180,Yes
72405284-c7ca-33a0-86b3-2aeb4e28bb6d,Brazil,government,51022680,EMEB PROGRESSO,-13.5645,-52.2585,1.0,254,Yes,Municipal,Urban,Yes,5.0,Centro-Oeste,5,Mato Grosso,BR51,Canarana,BR5102702,Yes
9d1da63c-037f-3340-934a-fe5c288d627c,Brazil,government,51022729,EMEB VIRIATO CORREA,-13.5131,-51.9162,1.0,200,No,Municipal,Rural,Yes,5.0,Centro-Oeste,5,Mato Grosso,BR51,Canarana,BR5102702,Yes
4007667f-ca58-323b-847b-534f896803d1,Brazil,government,51022770,EE 31 DE MARCO,-13.5537,-52.2705,1.0,675,No,Estadual,Urban,Yes,5.0,Centro-Oeste,5,Mato Grosso,BR51,Canarana,BR5102702,Yes
27e258b0-f169-3454-8b61-e3f0719009b1,Brazil,government,51022796,EMEB SERRA DOURADA,-13.7026,-52.0306,1.0,91,No,Municipal,Rural,Yes,5.0,Centro-Oeste,5,Mato Grosso,BR51,Canarana,BR5102702,Yes
d0064dc9-7285-3f8d-a90c-5ce08ed4c593,Brazil,government,51022818,EMEB CORONEL VANICK,-13.5402,-52.8797,1.0,148,Yes,Municipal,Rural,Yes,2.0,Centro-Oeste,5,Mato Grosso,BR51,Canarana,BR5102702,Yes
d99f160c-ca5f-32a5-a427-68c9cc7692cc,Brazil,government,51022990,EM DEUS E AMOR,-14.6724,-52.3587,0.67,382,Yes,Municipal,Urban,Yes,5.0,Centro-Oeste,5,Mato Grosso,BR51,Nova Xavantina,BR5106257,Yes
7d7feb2b-affc-3b7f-bcc8-1dd47dcfcd63,Brazil,government,51023091,ESCOLA MUNICIPAL MONTEIRO LOBATO,-14.6616,-52.3593,1.0,413,Yes,Municipal,Urban,Yes,5.0,Centro-Oeste,5,Mato Grosso,BR51,Nova Xavantina,BR5106257,Yes
c40ecc1c-9626-31a4-b7a3-e3a3a496c7a9,Brazil,government,51023202,EM SAO JOAO A,-14.6724,-52.3587,0.67,44,No,Municipal,Rural,Yes,2.0,Centro-Oeste,5,Mato Grosso,BR51,Nova Xavantina,BR5106257,Yes
f8ed5642-58f5-312c-a474-4c7a0ca9c020,Brazil,government,51023237,EM TAMBORIL II,-14.6724,-52.3587,0.67,38,Yes,Municipal,Rural,Yes,5.0,Centro-Oeste,5,Mato Grosso,BR51,Nova Xavantina,BR5106257,Yes
3b57048b-2fd5-3952-9fd6-e20c3c276dbc,Brazil,government,51023270,EE ARLINDO ESTILAC LEAL,-14.6724,-52.3587,0.67,243,Yes,Estadual,Urban,Yes,5.0,Centro-Oeste,5,Mato Grosso,BR51,Nova Xavantina,BR5106257,Yes
ed97b2a6-1967-3b7d-97d6-80f819c2f9af,Brazil,government,51023318,EE JUSCELINO K OLIVEIRA,-14.6724,-52.3587,0.67,996,Yes,Estadual,Urban,Yes,5.0,Centro-Oeste,5,Mato Grosso,BR51,Nova Xavantina,BR5106257,Yes
939a1685-8e61-3976-bf74-29c57cefe630,Brazil,government,51023326,EE CEL JOAO N DE M MALLET,-14.6607,-52.3543,1.0,509,Yes,Estadual,Urban,Yes,5.0,Centro-Oeste,5,Mato Grosso,BR51,Nova Xavantina,BR5106257,Yes
5ca51141-d6ae-351c-8a3a-5390b4a6faa3,Brazil,government,51023334,EE CORONEL VANIQUE,-14.6811,-52.3572,1.0,382,Yes,Estadual,Urban,Yes,2.0,Centro-Oeste,5,Mato Grosso,BR51,Nova Xavantina,BR5106257,Yes
71f0df24-a481-3c71-aff8-61a938dfd5b7,Brazil,government,51023342,EE MIN JOAO ALBERTO,-14.6748,-52.353,0.94,398,Yes,Estadual,Urban,Yes,5.0,Centro-Oeste,5,Mato Grosso,BR51,Nova Xavantina,BR5106257,Yes
e85594b7-d8e3-3ef1-8624-79d03e94ff31,Brazil,government,51023466,EMEB JOAQUIM RODRIGUES SOTO,-14.9176,-53.0181,1.0,413,Yes,Municipal,Urban,Yes,5.0,Centro-Oeste,5,Mato Grosso,BR51,Novo São Joaquim,BR5106281,Yes
3f49c7c2-abcc-3269-bd74-45e7a3194ede,Brazil,government,51023490,EMEF DOMINGOS AZZOLINI,-14.8192,-53.671,0.61,346,Yes,Municipal,Urban,Yes,2.0,Centro-Oeste,5,Mato Grosso,BR51,Santo Antônio do Leste,BR5107792,Yes
fefdf8e0-b7cb-3a6f-8cf3-9dc060a58655,Brazil,government,51023563,ESC MUN EDUC BASICA ITAQUERE,-15.1403,-53.4706,1.0,223,No,Municipal,Rural,Yes,2.0,Centro-Oeste,5,Mato Grosso,BR51,Novo São Joaquim,BR5106281,Yes
91ec9992-cde4-31ee-991a-eb3955748319,Brazil,government,51023822,ESC MUNICIPAL DE EDUCACAO BASICA TIO PATINHAS,-14.9916,-52.9728,0.67,147,No,Municipal,Urban,Yes,2.0,Centro-Oeste,5,Mato Grosso,BR51,Novo São Joaquim,BR5106281,Yes
fbdb0b03-09b1-321b-a1cd-3f86c6ce4199,Brazil,government,51023946,EE DINIZ ALVES DE TOLEDO,-14.9105,-53.0215,1.0,465,Yes,Estadual,Urban,Yes,5.0,Centro-Oeste,5,Mato Grosso,BR51,Novo São Joaquim,BR5106281,Yes
b5b2e0f4-44e7-35ca-8345-59a6de4a009a,Brazil,government,51023954,EE JOSE DE ALENCAR,-14.9916,-52.9728,0.67,157,No,Estadual,Rural,Yes,5.0,Centro-Oeste,5,Mato Grosso,BR51,Novo São Joaquim,BR5106281,Yes
a10d821c-ec34-3e96-9577-c116e9381db9,Brazil,government,51023962,ESCOLA MUNICIPAL INDIGENA VOLTA GRANDE,-15.1833,-53.8533,1.0,26,No,Municipal,Rural,Yes,5.0,Centro-Oeste,5,Mato Grosso,BR51,Novo São Joaquim,BR5106281,Yes
12a07a39-9827-3d2e-be56-edde1a2a919d,Brazil,government,51024020,ESC MUN DE EDUC BASICA OSCAR ZAIDEN DE MENEZES,-14.9916,-52.9728,0.67,127,Yes,Municipal,Rural,Yes,5.0,Centro-Oeste,5,Mato Grosso,BR51,Novo São Joaquim,BR5106281,Yes
51ad5253-4fd3-3aec-9ab4-929c4d1f0648,Brazil,government,51024047,EMEB AGROPECUARIA TANGURO,-12.1582,-52.7432,0.67,42,Yes,Municipal,Rural,Yes,5.0,Centro-Oeste,5,Mato Grosso,BR51,Querência,BR5107065,Yes
60268264-5e72-3ee4-b94d-00dbe3206956,Brazil,government,51024063,CMEI PASSINHOS PARA O FUTURO,-11.9381,-52.4848,1.0,16,No,Municipal,Rural,No,0.0,Centro-Oeste,5,Mato Grosso,BR51,Querência,BR5107065,No
88790975-043a-3d61-afbb-3ea7a960b0a5,Brazil,government,51024071,EMEB PROF,-12.1582,-52.7432,0.67,41,Yes,Municipal,Rural,Yes,2.0,Centro-Oeste,5,Mato Grosso,BR51,Querência,BR5107065,Yes
f62de8f7-abee-3728-a088-7e8488c983b9,Brazil,government,51024080,EMEB RANCHO BLANCO,-12.1582,-52.7432,1.0,0,,Municipal,Rural,,,Centro-Oeste,5,Mato Grosso,BR51,Querência,BR5107065,No
b669b97a-38dd-3dcd-9fd1-a85556c1da02,Brazil,government,51024101,EE QUERENCIA,-12.1582,-52.7432,0.67,743,Yes,Estadual,Urban,Yes,5.0,Centro-Oeste,5,Mato Grosso,BR51,Querência,BR5107065,Yes
8bc4c731-4e94-3cb6-b8ba-95a0d5c144bb,Brazil,government,51024179,EE CEL JERONIMO GOMES SILVA,-15.7298,-51.8347,1.0,304,Yes,Estadual,Urban,Yes,5.0,Centro-Oeste,5,Mato Grosso,BR51,Araguaiana,BR5101001,Yes
c7ea070d-8621-3f69-bb00-e07bb8425aea,Brazil,government,51024241,CEJA PROF MARISA MARIANO DA SILVA,-15.6585,-52.3745,0.67,1003,Yes,Estadual,Urban,Yes,5.0,Centro-Oeste,5,Mato Grosso,BR51,Barra do Garças,BR5101803,Yes
2c44132d-ef01-386e-9239-5b6802572456,Brazil,government,51024250,CENTRO MUNICIPAL DE EDUCACAO INFANTIL DOM GERALDO FERNANDES,-15.888,-52.253,0.89,108,No,Municipal,Urban,Yes,5.0,Centro-Oeste,5,Mato Grosso,BR51,Barra do Garças,BR5101803,Yes
59dd979d-c72d-30cb-9a3b-5f6e82d35d80,Brazil,government,51024306,EE JOSE ANGELO DOS SANTOS,-15.8899,-52.2738,1.0,213,Yes,Estadual,Urban,Yes,5.0,Centro-Oeste,5,Mato Grosso,BR51,Barra do Garças,BR5101803,Yes
2f275939-ef79-3a89-b340-8401daee712e,Brazil,government,51024330,CMEB WALDIZA REGO FLORES LOPES,-15.6585,-52.3745,0.67,357,Yes,Municipal,Urban,Yes,5.0,Centro-Oeste,5,Mato Grosso,BR51,Barra do Garças,BR5101803,Yes
a3163f64-6c1a-35a7-8017-80468ed8fb69,Brazil,government,51024349,CMEB- CENTRO MUNICIPAL DE EDUCACAO BASICA ILDA MAGAIEWSKI,-15.6585,-52.3745,0.67,152,Yes,Municipal,Rural,Yes,5.0,Centro-Oeste,5,Mato Grosso,BR51,Barra do Garças,BR5101803,Yes
4c8a92df-eb3c-33d5-99bb-81684ac4f66a,Brazil,government,51024373,CMEB PADRE SEBASTIAO TEIXEIRA DE CARVALHO,-15.892,-52.3319,0.94,412,Yes,Municipal,Urban,Yes,5.0,Centro-Oeste,5,Mato Grosso,BR51,Barra do Garças,BR5101803,Yes
a1f199ae-8130-3d23-8947-b21cea658ec9,Brazil,government,51024403,EE DEP NORBERTO SCHWANTES,-15.8826,-52.2861,1.0,400,Yes,Estadual,Urban,Yes,2.0,Centro-Oeste,5,Mato Grosso,BR51,Barra do Garças,BR5101803,Yes
6009fef3-badc-3ef1-8514-347ecf11eb37,Brazil,government,51024446,EE HERONIDES ARAUJO,-15.895,-52.2641,0.94,490,Yes,Estadual,Urban,Yes,5.0,Centro-Oeste,5,Mato Grosso,BR51,Barra do Garças,BR5101803,Yes
98c2a9e6-dea5-391b-9a83-a3fbfe0ab27d,Brazil,government,51024454,EE IR DIVA PIMENTEL,-15.8809,-52.2615,1.0,574,Yes,Estadual,Urban,Yes,5.0,Centro-Oeste,5,Mato Grosso,BR51,Barra do Garças,BR5101803,Yes
42655cd3-ffea-3786-8771-71de0cb6dcf5,Brazil,government,51024519,CENTRO MUNICIPAL DE EDUCACAO BASICA MARECHAL RONDON,-15.0344,-52.2379,1.0,86,Yes,Municipal,Rural,Yes,5.0,Centro-Oeste,5,Mato Grosso,BR51,Barra do Garças,BR5101803,Yes
ba1d95ed-a690-3b96-896a-9a79fb69a70a,Brazil,government,51024586,EE DOM JOSE SELVA,-15.8911,-52.2704,1.0,314,No,Estadual,Urban,Yes,5.0,Centro-Oeste,5,Mato Grosso,BR51,Barra do Garças,BR5101803,Yes
fdc6a0f2-a8c6-366d-8adf-cfe00c66e082,Brazil,government,51024594,EE FRANCISCO DOURADO,-15.8783,-52.2413,1.0,196,Yes,Estadual,Urban,Yes,5.0,Centro-Oeste,5,Mato Grosso,BR51,Barra do Garças,BR5101803,Yes
b1a21a6d-a092-3b3c-9a9c-3e35b5ebbffa,Brazil,government,51024608,EE JARDIM ARAGUAIA,-15.6585,-52.3745,0.67,259,Yes,Estadual,Urban,Yes,2.0,Centro-Oeste,5,Mato Grosso,BR51,Barra do Garças,BR5101803,Yes
4e4d08e0-3569-34e5-9082-6fc8f06935d2,Brazil,government,51024624,EE SAO JOAO BATISTA,-15.8774,-52.2625,1.0,197,Yes,Estadual,Urban,Yes,5.0,Centro-Oeste,5,Mato Grosso,BR51,Barra do Garças,BR5101803,Yes
8fb02c7e-2e40-36ed-ae2a-ff6c301cb495,Brazil,government,51024632,EE NOSSA SENHORA DA GUIA,-15.8807,-52.2318,1.0,74,Yes,Estadual,Urban,Yes,5.0,Centro-Oeste,5,Mato Grosso,BR51,Barra do Garças,BR5101803,Yes
b8b4e1fb-a5ec-3a2c-9125-0cff01ab5709,Brazil,government,51024640,EE INDIGENA DOM FELIPPO RINALDI,-15.6585,-52.3745,0.67,265,No,Estadual,Rural,Yes,5.0,Centro-Oeste,5,Mato Grosso,BR51,Barra do Garças,BR5101803,Yes
74dde3cd-5af6-33b8-bcd4-da40974350d7,Brazil,government,51024667,EE ANTONIO CRISTINO CORTES,-15.8903,-52.2591,1.0,408,Yes,Estadual,Urban,Yes,5.0,Centro-Oeste,5,Mato Grosso,BR51,Barra do Garças,BR5101803,Yes
c1a4f336-4f0f-38ac-8428-c8161a168d96,Brazil,government,51024675,EE MAL EURICO GASPAR DUTRA,-15.887,-52.2679,0.94,758,Yes,Estadual,Urban,Yes,2.0,Centro-Oeste,5,Mato Grosso,BR51,Barra do Garças,BR5101803,Yes
55d67a9e-95f8-3e0d-b55c-e846678d8acf,Brazil,government,51024705,EE SEN FILINTO MULLER,-15.8927,-52.2618,1.0,607,Yes,Estadual,Urban,Yes,5.0,Centro-Oeste,5,Mato Grosso,BR51,Barra do Garças,BR5101803,Yes
689ed81e-2e6e-377a-9832-a875be9a1c97,Brazil,government,51024713,EE PROF MARIA NAZARETH M NOLETO,-15.8716,-52.2679,1.0,144,No,Estadual,Urban,Yes,5.0,Centro-Oeste,5,Mato Grosso,BR51,Barra do Garças,BR5101803,Yes
e2533694-7506-3c12-903a-055a50670e04,Brazil,government,51024730,C M E B HELENA ESTEVES,-15.8897,-52.3285,1.0,789,Yes,Municipal,Urban,Yes,5.0,Centro-Oeste,5,Mato Grosso,BR51,Barra do Garças,BR5101803,Yes
61b1a277-82ea-3165-9342-af7f6482c0c6,Brazil,government,51024772,CMEB MOREIRA CABRAL,-15.8808,-52.2281,1.0,261,No,Municipal,Urban,Yes,5.0,Centro-Oeste,5,Mato Grosso,BR51,Barra do Garças,BR5101803,Yes
2aecdd07-f394-378f-8515-15f4a452ae57,Brazil,government,51024861,CMEB MIGUEL SUTIL,-15.4071,-52.9211,1.0,44,Yes,Municipal,Rural,Yes,5.0,Centro-Oeste,5,Mato Grosso,BR51,Barra do Garças,BR5101803,Yes
6a9d017a-c273-31fe-9efb-f8fd1ecf58b9,Brazil,government,51024926,CENTRO MUNICIPAL DE EDUCACAO BASICA CASTRO ALVES,-15.3852,-52.202,0.94,260,No,Municipal,Rural,Yes,2.0,Centro-Oeste,5,Mato Grosso,BR51,Barra do Garças,BR5101803,Yes
9313b864-4f77-3ec0-8322-429883e0dd5b,Brazil,government,51024985,EMPG COOPERCAL,-13.8692,-51.1476,0.67,35,Yes,Municipal,Rural,Yes,2.0,Centro-Oeste,5,Mato Grosso,BR51,Cocalinho,BR5103106,Yes
e223f5de-743b-3e9a-8511-fa298dc65b91,Brazil,government,51025019,ESCOLA MUNICIPAL EUROPA,-14.8116,-51.1495,1.0,12,No,Municipal,Rural,Yes,2.0,Centro-Oeste,5,Mato Grosso,BR51,Cocalinho,BR5103106,Yes
5afe885f-b6a1-319a-97e1-84e5de37ec06,Brazil,government,51025086,EE GETULIO VARGAS,-13.8692,-51.1476,0.67,617,Yes,Estadual,Urban,Yes,2.0,Centro-Oeste,5,Mato Grosso,BR51,Cocalinho,BR5103106,Yes
91c2ff45-f186-3d0a-9317-c619af6ec166,Brazil,government,51025108,EMPG RAIMUNDO SOARES NAVA,-14.3932,-51.0067,1.0,206,Yes,Municipal,Urban,Yes,2.0,Centro-Oeste,5,Mato Grosso,BR51,Cocalinho,BR5103106,Yes
3dabca31-2782-37f8-a89f-e2f32354bb82,Brazil,government,51025116,CENTRO DE EDUCACAO INFANTIL AVIAOZINHO,-15.0459,-59.7857,0.67,133,No,Municipal,Urban,Yes,2.0,Centro-Oeste,5,Mato Grosso,BR51,Vila Bela da Santíssima Trindade,BR5105507,Yes
